stop_id,stop_name,stop_lat,stop_lon,location_type,parent_station,wheelchair_boarding
VICGALL1,"Victor Gallois",47.256786,6.02118,0,st_victor_gallois,1
OISEAUX1,"Les Oiseaux",47.256332,6.034386,0,st_les_oiseaux,1
QUATVEN2,"4 Vents",47.259567,6.029016,0,st_4_vents,1
QUATVEN1,"4 Vents",47.259666,6.029967,0,st_4_vents,1
GRANDF19,"Grandfontaine - Le Mont",47.19491,5.899867,0,st_grandfontaine__le_mont,0
OISEAUX2,"Les Oiseaux",47.25591,6.033502,0,st_les_oiseaux,0
VICGALL2,"Victor Gallois",47.256733,6.020927,0,st_victor_gallois,0
GRANDF20,"Grandfontaine - Le Mont",47.194855,5.89978,0,st_grandfontaine__le_mont,0
GRANDF22,"Grandfontaine - Les Corvées",47.199024,5.906398,0,st_grandfontaine__les_corvees,0
GRANDF23,"Grandfontaine - Les Corvées",47.199104,5.906557,0,st_grandfontaine__les_corvees,0
CHARMIL1,"Charmilles",47.25593,6.013273,0,st_charmilles,0
GRANDF25,"Grandfontaine - Les Vergers",47.19764,5.89826,0,st_grandfontaine__les_vergers,0
GRANDF26,"Grandfontaine - Les Vergers",47.19752,5.89792,0,st_grandfontaine__les_vergers,0
CHARMIL2,"Charmilles",47.25533,6.013961,0,st_charmilles,1
BONNAY02,"Bonnay - Fontaine",47.33409,6.051384,0,st_bonnay__fontaine,0
BONNAY01,"Bonnay - Fontaine",47.33415,6.051215,0,st_bonnay__fontaine,0
PARCEXP2,"Parc des Expositions",47.22304,5.978963,0,st_parc_des_expositions,0
PARCEXP1,"Parc des Expositions",47.223587,5.979162,0,st_parc_des_expositions,0
POUILL09,"Pouilley-les-Vignes - Collège Pompidou",47.256447,5.927646,0,st_pouilleylesvignes__college_pompidou,1
POUILL05,"Pouilley-les-Vignes - Calvaire",47.254486,5.936676,0,st_pouilleylesvignes__calvaire,1
VINCENT3,"Clinique St Vincent",47.244637,5.981358,0,st_clinique_st_vincent,0
POUILL06,"Pouilley-les-Vignes - Calvaire",47.254364,5.938489,0,st_pouilleylesvignes__calvaire,1
t_hdc1,"Hauts du Chazal",47.221603,5.9515543,0,st_hauts_du_chazal,1
POUILL03,"Pouilley-les-Vignes - Salle des Fêtes",47.257896,5.934695,0,st_pouilleylesvignes__salle_des_fetes,0
POUILL04,"Pouilley-les-Vignes - Salle des fêtes",47.258,5.93469,0,st_pouilleylesvignes__salle_des_fetes,0
POUILL01,"Pouilley-les-Vignes - Grosse Aige",47.253468,5.952273,0,st_pouilleylesvignes__grosse_aige,0
t_hdc2,"Hauts du Chazal",47.22164,5.951406,0,st_hauts_du_chazal,1
POUILL02,"Pouilley-les-Vignes - Grosse Aige",47.25348,5.951683,0,st_pouilleylesvignes__grosse_aige,0
TREPIL1,"Trépillot",47.241333,6.006978,0,st_trepillot,0
BATTANT1,"Battant",47.2403,6.020009,0,st_battant,0
ECOLE35,"École-Valentin - Eglise",47.27198,5.981977,0,st_ecolevalentin__eglise,0
RENECHA2,"René Char",47.218273,5.95185,0,st_rene_char,0
ECOLE34,"École-Valentin - Eglise",47.27189,5.982152,0,st_ecolevalentin__eglise,0
VINCENT1,"Clinique St Vincent",47.244534,5.980263,0,st_clinique_st_vincent,0
ECOLE30,"École-Valentin - Levant",47.27398,5.99146,0,st_ecolevalentin__levant,0
VINCENT2,"Clinique St Vincent",47.244534,5.979918,0,st_clinique_st_vincent,0
MATY2,"Maty",47.240273,5.993742,0,st_maty,0
MATY1,"Maty",47.239918,5.993682,0,st_maty,0
FONT EC2,"Fontaine Ecu",47.250546,6.009618,0,st_fontaine_ecu,0
CHCROIX2,"Chemin de la Croix",47.27153,6.02848,0,st_chemin_de_la_croix,0
POUILL18,"Pouilley-les-Vignes - Zone Aux Grandes Leurosses",47.256878,5.92565,0,st_pouilleylesvignes__zone_aux_grandes_leurosses,0
FONT EC1,"Fontaine Ecu",47.250153,6.009932,0,st_fontaine_ecu,0
POUILL17,"Pouilley-les-Vignes - Zone Aux Grandes Leurosses",47.256824,5.925114,0,st_pouilleylesvignes__zone_aux_grandes_leurosses,0
POUILL12,"Pouilley-les-Vignes - Groupe Scolaire",47.261093,5.928313,0,st_pouilleylesvignes__groupe_scolaire,1
RENECHA1,"René Char",47.21853,5.952857,0,st_rene_char,0
POUILL13,"Pouilley-les-Vignes - Groupe Scolaire",47.260895,5.92922,0,st_pouilleylesvignes__groupe_scolaire,1
CHCROIX1,"Chemin de la Croix",47.271496,6.028426,0,st_chemin_de_la_croix,0
PORTERI2,"Porte Rivotte",47.23404,6.033558,0,st_porte_rivotte,0
VALLON1,"Avanne-Aveney - Vallon",47.208298,5.96379,0,st_avanneaveney__vallon,0
CHEVIL06,"La Chevillotte - Blatière",47.20851,6.143343,0,st_la_chevillotte__blatiere,0
MISERE12,"Miserey-Salines - Les Nuelles",47.28108,5.977653,0,st_misereysalines__les_nuelles,1
CHEVIL01,"La Chevillotte - Mairie",47.219906,6.165601,0,st_la_chevillotte__mairie,1
MISERE11,"Miserey-Salines - Les Nuelles",47.281128,5.977554,0,st_misereysalines__les_nuelles,1
CHEVIL02,"La Chevillotte - Mairie",47.219723,6.1655555,0,st_la_chevillotte__mairie,1
CROIXAR2,"Croix d'Arènes",47.235172,6.012653,0,st_croix_darenes,0
PORJOIN2,"Port Joint",47.23413,6.037011,0,st_port_joint,0
PORJOIN1,"Port Joint",47.233818,6.037148,0,st_port_joint,1
CROIXAR1,"Croix d'Arènes",47.234863,6.012517,0,st_croix_darenes,0
VALLON2,"Avanne-Aveney - Vallon",47.208775,5.963395,0,st_avanneaveney__vallon,0
JEANNET3,"Jeannettes",47.262142,6.046919,0,st_jeannettes,0
PUGCHL14,"Pugey - Chemin du Loup",47.168247,5.998902,0,st_pugey__chemin_du_loup,0
JEANNET2,"Jeannettes",47.262196,6.047158,0,st_jeannettes,0
BASC1,"Bascule",47.230595,5.994396,0,st_bascule,1
BASC2,"Bascule",47.230316,5.993398,0,st_bascule,0
CREUZE1,"Creuse",47.22471,6.031903,0,st_creuse,0
MAZER03,"Mazerolles-le-Salin - Cimetière",47.24447,5.872858,0,st_mazerolleslesalin__cimetiere,0
GROTTE01,"Grottes",47.22317,6.040244,0,st_grottes,0
MAZER02,"Mazerolles-le-Salin - Place du Village",47.241066,5.869663,0,st_mazerolleslesalin__place_du_village,1
CREUZE2,"Creuse",47.22438,6.031784,0,st_creuse,0
GROTTE02,"Grottes",47.22317,6.040244,0,st_grottes,0
MAZER01,"Mazerolles-le-Salin - Place du Village",47.24102,5.869715,0,st_mazerolleslesalin__place_du_village,1
ECOLE19,"École-Valentin - Ruisseau",47.26821,5.979988,0,st_ecolevalentin__ruisseau,0
ECOLE18,"École-Valentin - Lirenne",47.27475,5.989771,0,st_ecolevalentin__lirenne,0
PUGCHL13,"Pugey - Chemin du Loup",47.16832,5.999128,0,st_pugey__chemin_du_loup,0
ECOLE17,"École-Valentin - Lirenne",47.27465,5.989802,0,st_ecolevalentin__lirenne,0
MISERE05,"Miserey-Salines - Fontaine",47.28647,5.974411,0,st_misereysalines__fontaine,1
ECOLE16,"École-Valentin - Vert Bois",47.272346,5.996634,0,st_ecolevalentin__vert_bois,0
SANSONN2,"Sansonnets",47.26417,6.013366,0,st_sansonnets,0
MISERE06,"Miserey-Salines - Fontaine",47.286556,5.973995,0,st_misereysalines__fontaine,1
PAPILLO2,"Papillon",47.253735,6.038053,0,st_papillon,0
SANSONN1,"Sansonnets",47.263557,6.013511,0,st_sansonnets,0
ECOLE14,"École-Valentin - Vallon",47.273373,5.99121,0,st_ecolevalentin__vallon,0
MISERE03,"Miserey-Salines - Monument",47.284546,5.96812,0,st_misereysalines__monument,0
PAPILLO1,"Papillon",47.25412,6.038609,0,st_papillon,0
ECOLE13,"École-Valentin - Vallon",47.273403,5.991122,0,st_ecolevalentin__vallon,0
MISERE04,"Miserey-Salines - Monument",47.284584,5.968114,0,st_misereysalines__monument,0
MISERE01,"Miserey-Salines - Ancienne Gare",47.28499,5.962685,0,st_misereysalines__ancienne_gare,0
MALPA02,"Malpas",47.226604,6.035579,0,st_malpas,0
ECOLE12,"École-Valentin - Amitié",47.27102,5.98446,0,st_ecolevalentin__amitie,0
ECOLE11,"École-Valentin - Fauvette",47.2679,5.986619,0,st_ecolevalentin__fauvette,0
MISERE02,"Miserey-Salines - Ancienne Gare",47.284966,5.962837,0,st_misereysalines__ancienne_gare,0
MALPA01,"Malpas",47.226604,6.035579,0,st_malpas,0
ECOLE10,"École-Valentin - Fauvette",47.26769,5.986023,0,st_ecolevalentin__fauvette,0
MISERE07,"Miserey-Salines - Grande Charrière",47.28573,5.981456,0,st_misereysalines__grande_charriere,0
MISERE08,"Miserey-Salines - Grande Charrière",47.285755,5.981565,0,st_misereysalines__grande_charriere,0
NOVI07,"Novillars - Bois des Ages",47.28523,6.127674,0,st_novillars__bois_des_ages,0
NOVI06,"Novillars - A. Garrignot",47.284428,6.123364,0,st_novillars__a_garrignot,0
CHEFOUN1,"Chemin des Founottes",47.258205,6.006947,0,st_chemin_des_founottes,0
NOVI05,"Novillars - A. Garrignot",47.28447,6.123335,0,st_novillars__a_garrignot,0
MONTFA11,"Montfaucon - Institut Rural",47.225704,6.078179,0,st_montfaucon__institut_rural,0
MONTFA10,"Montfaucon - Bas Village",47.227947,6.079925,0,st_montfaucon__bas_village,0
MONTFA13,"Montfaucon - Four à Chaux",47.22837,6.08349,0,st_montfaucon__four_a_chaux,0
CHAUCE07,"Chaucenne - Les Barrots",47.289665,5.904218,0,st_chaucenne__les_barrots,0
NOVI09,"Novillars - Mairie",47.285313,6.134905,0,st_novillars__mairie,1
CHAUCE06,"Chaucenne - Les Barrots",47.289665,5.904218,0,st_chaucenne__les_barrots,0
MONTFA14,"Montfaucon - Fours à Chaux",47.22874,6.08417,0,st_montfaucon__fours_a_chaux,0
NOVI08,"Novillars - Bois des Ages",47.285233,6.12785,0,st_novillars__bois_des_ages,0
IUT2,"IUT",47.24731,5.99277,0,st_iut,1
IUT1,"IUT",47.24727,5.99294,0,st_iut,1
STMARTI2,"St Martin",47.242584,5.994174,0,st_st_martin,1
NOVI03,"Novillars - Hôpital",47.28363,6.126149,0,st_novillars__hopital,0
NOVI02,"Novillars - Marie Curie",47.2882,6.13247,0,st_novillars__marie_curie,1
COLOMBO1,"Colombot",47.24508,6.045645,0,st_colombot,0
NOVI01,"Novillars - Marie Curie",47.288254,6.13252,0,st_novillars__marie_curie,1
ECOLE29,"École-Valentin - Gare",47.27463,5.994425,0,st_ecolevalentin__gare,2
COLOMBO2,"Colombot",47.24517,6.045755,0,st_colombot,0
FLORE2,"Flore",47.246075,6.028145,0,st_flore,0
ECOLE26,"École-Valentin - Valentin",47.277493,5.993693,0,st_ecolevalentin__valentin,0
ECOLE25,"École-Valentin - Valentin",47.277573,5.993464,0,st_ecolevalentin__valentin,0
ECOLE24,"École-Valentin - Maisonnettes",47.27104,5.990697,0,st_ecolevalentin__maisonnettes,0
ECOLE23,"École-Valentin - Maisonnettes",47.271034,5.990557,0,st_ecolevalentin__maisonnettes,0
ALLEN2,"Allende",47.21991,5.973348,0,st_allende,0
ECOLE22,"École-Valentin - Mairie",47.270695,5.983552,0,st_ecolevalentin__mairie,1
CULPRES2,"Cul des Prés",47.269806,6.042978,0,st_cul_des_pres,0
CHAUDF03,"Marchaux-Chaudefontaine - Fontaine du Haut",47.339153,6.159765,0,st_marchauxchaudefontaine__fontaine_du_haut,1
ECOLE20,"École-Valentin - Ruisseau",47.268658,5.980414,0,st_ecolevalentin__ruisseau,0
CHAUDF04,"Marchaux-Chaudefontaine - Fontaine du Haut",47.33917,6.1594443,0,st_marchauxchaudefontaine__fontaine_du_haut,0
LANCHY2,"Lanchy",47.258602,6.02871,0,st_lanchy,0
CULPRES1,"Cul des Prés",47.26978,6.043004,0,st_cul_des_pres,0
LANCHY1,"Lanchy",47.25871,6.028651,0,st_lanchy,0
ALLEN1,"Allende",47.219585,5.974183,0,st_allende,0
CHEFOUN2,"Chemin des Founottes",47.257923,6.006475,0,st_chemin_des_founottes,0
DEBUSSY1,"Debussy",47.25902,6.039386,0,st_debussy,0
DEBUSSY2,"Debussy",47.258698,6.038877,0,st_debussy,1
FLORE4,"Flore",47.24562,6.028358,0,st_flore,0
BUSY03,"Busy - Ecole",47.167427,5.948635,0,st_busy__ecole,1
NOVI10,"Novillars - Mairie",47.28556,6.136629,0,st_novillars__mairie,1
BUSY04,"Busy - Ecole",47.16745,5.94858,0,st_busy__ecole,0
DANTON1,"Danton",47.243538,6.049076,0,st_danton,1
t_repu2,"République",47.240948,6.0270724,0,st_republique,1
t_repu1,"République",47.240894,6.0271482,0,st_republique,1
BUSY01,"Busy - Moulinot",47.173355,5.95186,0,st_busy__moulinot,0
BUSY02,"Busy - Moulinot",47.173054,5.951667,0,st_busy__moulinot,0
VIVARAI2,"Vivarais",47.21982,5.963475,0,st_vivarais,1
PISCHAL2,"Chalezeule - Piscine Chalezeule",47.266422,6.072056,0,st_chalezeule__piscine_chalezeule,1
LYPARIS1,"Lycée Pâris",47.259598,5.997477,0,st_lycee_paris,0
VIVARAI1,"Vivarais",47.219803,5.963448,0,st_vivarais,0
GRANDF01,"Grandfontaine - Graviers",47.19659,5.892842,0,st_grandfontaine__graviers,0
GAUGIN1,"Gauguin",47.21765,5.976064,0,st_gauguin,0
GRANDF02,"Grandfontaine - Graviers",47.19648,5.89247,0,st_grandfontaine__graviers,0
LYPARIS2,"Lycée Pâris",47.259525,5.997682,0,st_lycee_paris,0
GAUGIN2,"Gauguin",47.21781,5.975967,0,st_gauguin,0
DANTON2,"Danton",47.243885,6.048732,0,st_danton,1
GRANDF03,"Grandfontaine - Place des Ecoliers",47.19918,5.901244,0,st_grandfontaine__place_des_ecoliers,0
SECUSOC1,"Sécurité Sociale",47.24328,5.993862,0,st_securite_sociale,0
GRANDF04,"Grandfontaine - Place des Ecoliers",47.198788,5.901298,0,st_grandfontaine__place_des_ecoliers,0
BOUSS11,"Boussières - Maroc",47.154865,5.886098,0,st_boussieres__maroc,0
SECUSOC2,"Sécurité Sociale",47.243362,5.993149,0,st_securite_sociale,0
GRANDF05,"Grandfontaine - Source",47.197357,5.902904,0,st_grandfontaine__source,0
BOUSS12,"Boussières - Maroc",47.156387,5.886667,0,st_boussieres__maroc,0
CHAUCE04,"Chaucenne - Abribus",47.283165,5.89806,0,st_chaucenne__abribus,1
CHAUCE03,"Chaucenne - Abribus",47.283195,5.898094,0,st_chaucenne__abribus,1
CHAUCE02,"Chaucenne - Trois Charmes",47.286182,5.896234,0,st_chaucenne__trois_charmes,0
CHAUCE01,"Chaucenne - Trois Charmes",47.286182,5.896234,0,st_chaucenne__trois_charmes,0
JEANJAU2,"Jean Jaurès",47.232353,6.001019,0,st_jean_jaures,1
JEANJAU1,"Jean Jaurès",47.232517,6.002034,0,st_jean_jaures,1
GRANDF06,"Grandfontaine - Source",47.197525,5.902343,0,st_grandfontaine__source,0
GRANDF07,"Grandfontaine - Passage à Niveau",47.211266,5.917439,0,st_grandfontaine__passage_a_niveau,0
GRANDF08,"Grandfontaine - Passage à Niveau",47.211384,5.917812,0,st_grandfontaine__passage_a_niveau,0
GRANDF09,"Grandfontaine - Les Dolines",47.211933,5.925517,0,st_grandfontaine__les_dolines,0
ECOLE09,"École-Valentin - Mairie",47.270893,5.983541,0,st_ecolevalentin__mairie,1
BOUSS08,"Boussières - Chemin de Chaux",47.156715,5.907668,0,st_boussieres__chemin_de_chaux,0
BOUSS06,"Boussières - Route de Besançon",47.15931,5.900953,0,st_boussieres__route_de_besancon,0
GRANDF10,"Grandfontaine - Les Dolines",47.212257,5.923061,0,st_grandfontaine__les_dolines,0
BOUSS07,"Boussières - Chemin de Chaux",47.156715,5.907668,0,st_boussieres__chemin_de_chaux,0
GRANDF11,"Grandfontaine - Croix Rouge",47.208775,5.911046,0,st_grandfontaine__croix_rouge,0
BOUSS04,"Boussières - Centre",47.15837,5.901505,0,st_boussieres__centre,1
GRANDF12,"Grandfontaine - Croix Rouge",47.208687,5.910357,0,st_grandfontaine__croix_rouge,0
BOUSS05,"Boussières - Route de Besançon",47.1599,5.9013,0,st_boussieres__route_de_besancon,0
GRANDF13,"Grandfontaine - Z.A.",47.203487,5.902245,0,st_grandfontaine__za,0
BOUSS02,"Boussières - Papeteries",47.159622,5.887703,0,st_boussieres__papeteries,0
GRANDF14,"Grandfontaine - Z.A.",47.203552,5.902152,0,st_grandfontaine__za,0
BOUSS03,"Boussières - Centre",47.158485,5.901495,0,st_boussieres__centre,1
BOUSS01,"Boussières - Papeteries",47.15959,5.887822,0,st_boussieres__papeteries,0
CRAS,"Orchamps",47.26292,6.044633,0,st_orchamps,1
CASERNE1,"Casernes",47.23705,6.004314,0,st_casernes,0
CASERNE2,"Casernes",47.237076,6.003574,0,st_casernes,0
SAT2,"Satie",47.25922,5.990184,0,st_satie,0
SAT1,"Satie",47.25922,5.990184,0,st_satie,0
OSSEL10,"Osselle-Routelle - Moulin",47.16745,5.83958,0,st_osselleroutelle__moulin,0
OSSEL11,"Osselle-Routelle - Noyers",47.1667,5.8504,0,st_osselleroutelle__noyers,0
OSSEL12,"Osselle-Routelle - Noyers",47.1667,5.8504,0,st_osselleroutelle__noyers,0
NANCRA02,"Nancray - Les Pins",47.245094,6.188898,0,st_nancray__les_pins,1
OSSEL13,"Osselle-Routelle - Arenthon",47.15741,5.856562,0,st_osselleroutelle__arenthon,0
NANCRA01,"Nancray - Les Pins",47.245026,6.189864,0,st_nancray__les_pins,1
OSSEL14,"Osselle-Routelle - Arenthon",47.157085,5.8568,0,st_osselleroutelle__arenthon,0
NANCRA03,"Nancray - Maisons Comtoises",47.23943,6.184912,0,st_nancray__maisons_comtoises,0
FRESNEL4,"Fresnel",47.236443,5.9779186,0,st_fresnel,0
NANCRA06,"Nancray - Centre",47.244946,6.183274,0,st_nancray__centre,1
FRESNEL3,"Fresnel",47.236423,5.978027,0,st_fresnel,0
NANCRA05,"Nancray - Centre",47.245132,6.183337,0,st_nancray__centre,1
NANCRA08,"Nancray - Pompier",47.244125,6.177706,0,st_nancray__pompier,0
NANCRA07,"Nancray - Pompier",47.244183,6.177064,0,st_nancray__pompier,0
MAMIR08,"Mamirolle - Le Noret",47.194443,6.1505556,0,st_mamirolle__le_noret,0
PONTBRE2,"Pont de Bregille",47.23801,6.03272,0,st_pont_de_bregille,0
MAMIR09,"Mamirolle - Place",47.197212,6.160609,0,st_mamirolle__place,0
PONTBRE1,"Pont de Bregille",47.23797,6.03277,0,st_pont_de_bregille,0
MAMIR07,"Mamirolle - Le Noret",47.19519,6.149791,0,st_mamirolle__le_noret,0
MAMIR05,"Mamirolle - Gare",47.199802,6.161789,0,st_mamirolle__gare,0
BRUYERE2,"Bruyères",47.256706,6.025162,0,st_bruyeres,0
BRUYERE1,"Bruyères",47.256477,6.024817,0,st_bruyeres,0
HEITZ1,"Heitz",47.24416,6.043637,0,st_heitz,0
COLSENE2,"Colsenet",47.251442,6.021145,0,st_colsenet,0
COLSENE1,"Colsenet",47.250854,6.022293,0,st_colsenet,0
OSSEL01,"Osselle-Routelle - Plage",47.139256,5.852646,0,st_osselleroutelle__plage,0
OSSEL03,"Osselle-Routelle - Eglise",47.142742,5.855596,0,st_osselleroutelle__eglise,1
OSSEL04,"Osselle-Routelle - Eglise",47.1425,5.855278,0,st_osselleroutelle__eglise,1
FLSAUT02,"Feuilles d'Automne",47.263992,6.022766,0,st_feuilles_dautomne,0
CVIOTTE1,"Cité Viotte",47.25211,6.022685,0,st_cite_viotte,0
FLSAUT01,"Feuilles d'Automne",47.263287,6.022851,0,st_feuilles_dautomne,0
OSSEL07,"Osselle-Routelle - Prés Noue",47.167503,5.849505,0,st_osselleroutelle__pres_noue,1
OSSEL08,"Osselle-Routelle - Prés Noue",47.167503,5.849505,0,st_osselleroutelle__pres_noue,0
CVIOTTE2,"Cité Viotte",47.251965,6.022374,0,st_cite_viotte,0
OSSEL09,"Osselle-Routelle - Moulin",47.16745,5.83958,0,st_osselleroutelle__moulin,0
MAMIR19,"Mamirolle - Ferme Bulle",47.20715,6.145655,0,st_mamirolle__ferme_bulle,0
CLAIRI1,"Clairière",47.250214,5.976238,0,st_clairiere,0
CLAIRI2,"Clairière",47.25023,5.976278,0,st_clairiere,0
MAMIR18,"Mamirolle - Ferme Bulle",47.20715,6.145655,0,st_mamirolle__ferme_bulle,0
MONTFA01,"Montfaucon - Jonquilles",47.235046,6.084734,0,st_montfaucon__jonquilles,0
MONTFA03,"Montfaucon - Centre",47.235157,6.081181,0,st_montfaucon__centre,0
LYSPAUL2,"Lycée St Paul",47.245487,6.035137,0,st_lycee_st_paul,1
MAMIR11,"Mamirolle - Petit Pont",47.19964,6.160565,0,st_mamirolle__petit_pont,0
MONTFA05,"Montfaucon - Groupe Scolaire",47.23439,6.077073,0,st_montfaucon__groupe_scolaire,0
MAMIR12,"Mamirolle - Petit Pont",47.20009,6.15994,0,st_mamirolle__petit_pont,0
MONTFA08,"Montfaucon - La Vierge",47.135586,6.45443,0,st_montfaucon__la_vierge,0
MONTFA07,"Montfaucon - La Vierge",47.23215,6.081862,0,st_montfaucon__la_vierge,0
MAMIR10,"Mamirolle - Place",47.197224,6.1605554,0,st_mamirolle__place,0
MAMIR15,"Mamirolle - Stade",47.20495,6.152023,0,st_mamirolle__stade,0
MONTFA09,"Montfaucon - Bas Village",47.227966,6.07983,0,st_montfaucon__bas_village,0
MAMIR16,"Mamirolle - Pont RN 57",47.195652,6.153655,0,st_mamirolle__pont_rn_57,0
MAMIR13,"Mamirolle - Transformateur",47.20259,6.155823,0,st_mamirolle__transformateur,0
COLLUM1,"Collège Lumière",47.240047,6.029358,0,st_college_lumiere,0
LYSPAUL1,"Lycée St Paul",47.245857,6.035329,0,st_lycee_st_paul,1
MAMIR14,"Mamirolle - Stade",47.204765,6.15224,0,st_mamirolle__stade,0
BROGRET3,"Brossolette Greta",47.248978,6.003447,0,st_brossolette_greta,0
COLPROU1,"Collège Proudhon",47.26656,6.046761,0,st_college_proudhon,0
BROGRET1,"Brossolette Greta",47.24895,6.003371,0,st_brossolette_greta,0
COLPROU2,"Collège Proudhon",47.2671,6.04713,0,st_college_proudhon,0
BATICFA3,"Bâtiment CFA",47.257973,5.999641,0,st_batiment_cfa,0
BATICFA2,"Bâtiment CFA",47.258198,5.999084,0,st_batiment_cfa,0
BATICFA4,"Bâtiment CFA",47.258015,5.9995995,0,st_batiment_cfa,0
BATICFA1,"Bâtiment CFA",47.258003,5.999158,0,st_batiment_cfa,0
LYSJEAN1,"Lycée Saint Jean",47.258324,6.021296,0,st_lycee_saint_jean,0
LYSJEAN2,"Lycée Saint Jean",47.25807,6.020532,0,st_lycee_saint_jean,0
CENSTPI2,"Centre St Pierre",47.24058,6.028269,0,st_centre_st_pierre,0
CENSTPI1,"Centre St Pierre",47.240437,6.028455,0,st_centre_st_pierre,0
FLMA2,"Flammarion",47.260296,5.999845,0,st_flammarion,0
MAMIR23,"Mamirolle - Halte-Garderie",47.197872,6.15626,0,st_mamirolle__haltegarderie,0
MAMIR20,"Mamirolle - Quatre Vents",47.197098,6.154772,0,st_mamirolle__quatre_vents,0
MAMIR21,"Mamirolle - Quatre Vents",47.197098,6.154772,0,st_mamirolle__quatre_vents,0
VALJOUR1,"Vallon du Jour",47.266052,6.027311,0,st_vallon_du_jour,0
SALBREG2,"Salins de Bregille",47.241627,6.039823,0,st_salins_de_bregille,0
VALJOUR2,"Vallon du Jour",47.266785,6.027603,0,st_vallon_du_jour,0
SALBREG1,"Salins de Bregille",47.241714,6.040094,0,st_salins_de_bregille,0
MAMIR24,"Mamirolle - Transformateur",47.202717,6.155811,0,st_mamirolle__transformateur,0
SIFFERT1,"Siffert",47.24125,6.015287,0,st_siffert,0
SIFFERT2,"Siffert",47.241398,6.015444,0,st_siffert,0
CHGNEY03,"Champagney - Abribus",47.259075,5.907194,0,st_champagney__abribus,0
CHGNEY02,"Champagney - Les Baraques",47.260067,5.900273,0,st_champagney__les_baraques,0
TORPES20,"Torpes - verne",47.16913,5.8885,0,st_torpes__verne,0
BOUCONS2,"Montboucons",47.256294,5.994769,0,st_montboucons,0
PLENIER2,"Plénière",47.2645,6.01763,0,st_pleniere,0
CHGNEY01,"Champagney - Les Baraques",47.259907,5.900381,0,st_champagney__les_baraques,0
BOUCONS1,"Montboucons",47.256145,5.994509,0,st_montboucons,0
PLENIER1,"Plénière",47.26459,6.01778,0,st_pleniere,0
CHGNEY06,"Champagney - Vieux Village",47.25589,5.90637,0,st_champagney__vieux_village,0
CHGNEY05,"Champagney - Les Baraques",47.260067,5.900273,0,st_champagney__les_baraques,0
CHGNEY04,"Champagney - Abribus",47.258846,5.906978,0,st_champagney__abribus,0
ECHVALE1,"École-Valentin - Echangeur de Valentin",47.278015,5.993835,0,st_ecolevalentin__echangeur_de_valentin,1
CHVALEN2,"Chemin de Valentin",47.270634,6.007419,0,st_chemin_de_valentin,0
CHVALEN1,"Chemin de Valentin",47.27074,6.007254,0,st_chemin_de_valentin,0
ECHVALE2,"École-Valentin - Echangeur de Valentin",47.277508,5.994129,0,st_ecolevalentin__echangeur_de_valentin,1
BAVEREZ1,"Baverez",47.24202,5.978793,0,st_baverez,0
BAVEREZ2,"Baverez",47.243584,5.97854,0,st_baverez,0
MONTFE11,"Montferrand-le-Château - Les Deux Mares",47.17812,5.921995,0,st_montferrandlechateau__les_deux_mares,0
MONTFE10,"Montferrand-le-Château - Stade",47.17572,5.911473,0,st_montferrandlechateau__stade,0
MONTFE13,"Montferrand-le-Château - Le Bochet",47.195267,5.920159,0,st_montferrandlechateau__le_bochet,0
MONTFE12,"Montferrand-le-Château - Les Deux Marres",47.178085,5.922129,0,st_montferrandlechateau__les_deux_marres,0
TORPES17,"Torpes - la combe",47.16578,5.88457,0,st_torpes__la_combe,0
MONTFE15,"Montferrand-le-Château - Maison de Retraite",47.190834,5.924722,0,st_montferrandlechateau__maison_de_retraite,0
TORPES18,"Torpes - la combe",47.16578,5.88457,0,st_torpes__la_combe,0
TORPES19,"Torpes - verne",47.16913,5.8885,0,st_torpes__verne,0
MONTFE17,"Montferrand-le-Château - Chapelle",47.176895,5.915303,0,st_montferrandlechateau__chapelle,0
MALCOMB2,"Malcombe",47.22237,5.981935,0,st_malcombe,0
MONTFE16,"Montferrand-le-Château - Chapelle",47.17687,5.915288,0,st_montferrandlechateau__chapelle,0
MONTFE18,"Montferrand-le-Château - Couvent",47.192307,5.916664,0,st_montferrandlechateau__couvent,0
AMAGN03,"Amagney - Prairie",47.30494,6.151611,0,st_amagney__prairie,0
AMAGN01,"Amagney - Malmaison",47.298786,6.158828,0,st_amagney__malmaison,0
GRATT01,"Le Gratteris - Village",47.183342,6.13739,0,st_le_gratteris__village,1
GRATT02,"Le Gratteris - Village",47.183056,6.1361113,0,st_le_gratteris__village,1
COURBET1,"Courbet",47.240883,6.025303,0,st_courbet,0
DEMAN2,"Demangel",47.24463,6.011316,0,st_demangel,0
PELOUS07,"Pelousey - Champ Pusy",47.27052,5.919536,0,st_pelousey__champ_pusy,0
DEMAN1,"Demangel",47.24433,6.011668,0,st_demangel,0
PELOUS06,"Pelousey - Vert Village",47.274406,5.913301,0,st_pelousey__vert_village,0
LIBERTE3,"Liberté",47.247612,6.028507,0,st_liberte,1
PELOUS09,"Pelousey - Lotissement",47.27712,5.926454,0,st_pelousey__lotissement,0
LIBERTE4,"Liberté",47.247437,6.028415,0,st_liberte,1
PELOUS03,"Pelousey - Mairie",47.275597,5.921284,0,st_pelousey__mairie,0
PELOUS02,"Pelousey - Chêne Béni",47.27972,5.9319444,0,st_pelousey__chene_beni,0
PELOUS05,"Pelousey - Vert Village",47.274395,5.913446,0,st_pelousey__vert_village,0
PELOUS04,"Pelousey - Mairie",47.2756,5.920984,0,st_pelousey__mairie,0
EDISON3,"Edison",47.232925,5.973859,0,st_edison,0
TORPES05,"Torpes - Piroulette",47.181683,5.873416,0,st_torpes__piroulette,0
TORPES06,"Torpes - Piroulette",47.18168,5.873384,0,st_torpes__piroulette,0
DONZELO1,"Donzelot",47.249332,6.051472,0,st_donzelot,0
PELOUS01,"Pelousey - Chêne Béni",47.279903,5.93268,0,st_pelousey__chene_beni,0
DONZELO2,"Donzelot",47.24951,6.049993,0,st_donzelot,1
AMAGN08,"Amagney - Les Mirabelles",47.301163,6.154579,0,st_amagney__les_mirabelles,0
TORPES01,"Torpes - Gare",47.166077,5.891303,0,st_torpes__gare,1
AMAGN07,"Amagney - Les Mirabelles",47.30101,6.154758,0,st_amagney__les_mirabelles,0
TORPES02,"Torpes - Gare",47.165882,5.891082,0,st_torpes__gare,1
AMAGN06,"Amagney - Fontaine",47.305893,6.150131,0,st_amagney__fontaine,0
TORPES03,"Torpes - Eglise",47.16966,5.891329,0,st_torpes__eglise,1
AMAGN05,"Amagney - Fontaine",47.305943,6.150284,0,st_amagney__fontaine,0
EDISON4,"Edison",47.232803,5.973448,0,st_edison,0
TORPES04,"Torpes - Eglise",47.16963,5.891392,0,st_torpes__eglise,1
AMAGN04,"Amagney - Prairie",47.304665,6.151689,0,st_amagney__prairie,0
AMAGN14,"Amagney - Combe Lançon",47.29379,6.136392,0,st_amagney__combe_lancon,0
CHAUDAN1,"Chaudanne",47.2304,6.014409,0,st_chaudanne,0
AMAGN13,"Amagney - Combe Lançon",47.293423,6.135959,0,st_amagney__combe_lancon,0
CHAUDAN2,"Chaudanne",47.230503,6.014415,0,st_chaudanne,0
AMAGN12,"Amagney - Douraise",47.3048,6.145531,0,st_amagney__douraise,0
AMAGN11,"Amagney - Douraise",47.304764,6.145079,0,st_amagney__douraise,0
t_schw1,"Schweitzer",47.256077,6.04481,0,st_schweitzer,1
t_schw2,"Schweitzer",47.25585,6.04508,0,st_schweitzer,1
PERGAUD1,"Haras",47.234695,6.008151,0,st_haras,1
AMAGN18,"Amagney - Prés Noirs",47.30127,6.139593,0,st_amagney__pres_noirs,0
PERGAUD2,"Haras",47.234833,6.008103,0,st_haras,1
AMAGN17,"Amagney - Prés Noirs",47.301243,6.139495,0,st_amagney__pres_noirs,0
NOTDAME2,"Notre Dame",47.2501,6.004226,0,st_notre_dame,0
NOTDAME1,"Notre Dame",47.250347,6.005563,0,st_notre_dame,0
ESAVOYE1,"Eugène Savoye",47.24947,6.02298,0,st_eugene_savoye,0
STA,"St Amour",47.239227,6.026853,0,st_st_amour,1
ESPLAN1,"Esplanade",47.23478,6.02082,0,st_esplanade,0
ANTORP02,"Saint-Vit - Antorpe",47.1843,5.791965,0,st_saintvit__antorpe,0
PRESVAU1,"Prés de Vaux",47.229652,6.053614,0,st_pres_de_vaux,0
ANTORP01,"Saint-Vit - Antorpe",47.1843,5.791965,0,st_saintvit__antorpe,0
OBSAFPA3,"AFPA",47.24683,5.99625,0,st_afpa,1
OBSAFPA2,"AFPA",47.24676,5.99651,0,st_afpa,1
AIGUILL2,"Aiguille",47.240826,6.038393,0,st_aiguille,0
THORAI01,"Thoraise - Village",47.173084,5.903192,0,st_thoraise__village,1
AIGUILL1,"Aiguille",47.240772,6.038847,0,st_aiguille,0
THORAI02,"Thoraise - Village",47.17316,5.903169,0,st_thoraise__village,1
THORAI03,"Thoraise - Surotte",47.174366,5.902225,0,st_thoraise__surotte,0
CHAMESP1,"Chamars Esplanade",47.23478,6.020848,0,st_chamars_esplanade,0
CHAMESP2,"Chamars Esplanade",47.23431,6.0208,0,st_chamars_esplanade,0
ULL2,"Ullmann",47.254303,5.98762,0,st_ullmann,0
AUDEU04,"Audeux - Mairie",47.26236,5.872282,0,st_audeux__mairie,1
ULL1,"Ullmann",47.254303,5.98762,0,st_ullmann,0
AUDEU03,"Audeux - Mairie",47.262466,5.872575,0,st_audeux__mairie,1
ORCTGB,"Orchamps",47.263336,6.046062,0,st_orchamps,0
AUDEU02,"Audeux - Village",47.261093,5.871455,0,st_audeux__village,0
AUDEU01,"Audeux - Village",47.2611,5.871447,0,st_audeux__village,0
BELIN2,"Belin",47.22512,5.965313,0,st_belin,0
BELIN1,"Belin",47.22524,5.965668,0,st_belin,0
CITAR02,"Cité des Arts",47.236073,6.033217,0,st_cite_des_arts,0
CITAR01,"Cité des Arts",47.23615,6.033246,0,st_cite_des_arts,0
DEULYS01,"Deux Lys",47.22519,6.018142,0,st_deux_lys,0
ROCHE09,"Roche-lez-Beaupré - Tamaris",47.27657,6.11611,0,st_rochelezbeaupre__tamaris,0
ROCHE08,"Roche-lez-Beaupré - Rosiers",47.274517,6.107054,0,st_rochelezbeaupre__rosiers,0
BELFORT2,"Belfort",47.25672,6.04214,0,st_belfort,0
ROCHE07,"Roche-lez-Beaupré - Rosiers",47.27449,6.106514,0,st_rochelezbeaupre__rosiers,0
BELFORT1,"Belfort",47.256645,6.042124,0,st_belfort,0
ROCHE06,"Roche-lez-Beaupré - Gare",47.275917,6.11257,0,st_rochelezbeaupre__gare,1
DEULYS02,"Deux Lys",47.22519,6.018142,0,st_deux_lys,0
ROCHE05,"Roche-lez-Beaupré - Gare",47.27572,6.11258,0,st_rochelezbeaupre__gare,1
ROCHE02,"Roche-lez-Beaupré - Carrefour Vaufressons",47.280457,6.114928,0,st_rochelezbeaupre__carrefour_vaufressons,0
ROCHE01,"Roche-lez-Beaupré - Carrefour Vaufressons",47.28048,6.114971,0,st_rochelezbeaupre__carrefour_vaufressons,0
INTERMA1,"Intermarché",47.24769,5.999639,0,st_intermarche,1
INTERMA2,"Intermarché",47.247562,5.999067,0,st_intermarche,0
MONTFE02,"Montferrand-le-Château - Marronniers",47.178394,5.909198,0,st_montferrandlechateau__marronniers,0
MONTFE01,"Montferrand-le-Château - Marronniers",47.178185,5.909451,0,st_montferrandlechateau__marronniers,0
MONTFE04,"Montferrand-le-Château - Mairie",47.184025,5.908054,0,st_montferrandlechateau__mairie,1
MONTFE03,"Montferrand-le-Château - Mairie",47.183617,5.908255,0,st_montferrandlechateau__mairie,1
t_farg1,"Fontaine Argent",47.245975,6.0337963,0,st_fontaine_argent,1
MONTFE06,"Montferrand-le-Château - Fontaine",47.1908,5.913701,0,st_montferrandlechateau__fontaine,0
t_farg2,"Fontaine Argent",47.24595,6.033674,0,st_fontaine_argent,1
MONTFE05,"Montferrand-le-Château - Fontaine",47.19083,5.914024,0,st_montferrandlechateau__fontaine,0
CIMCLA2,"Cimetière St Claude",47.261353,6.019765,0,st_cimetiere_st_claude,0
MONTFE08,"Montferrand-le-Château - Marne",47.194168,5.9183335,0,st_montferrandlechateau__marne,0
CIMCLA1,"Cimetière St Claude",47.26145,6.019935,0,st_cimetiere_st_claude,0
MONTFE07,"Montferrand-le-Château - Marne",47.193844,5.918402,0,st_montferrandlechateau__marne,0
PLANOIS2,"Planoise",47.21727,5.96663,0,st_planoise,0
PLANOIS3,"Planoise",47.21771,5.965849,0,st_planoise,0
MONTFE09,"Montferrand-le-Château - Stade",47.17615,5.911181,0,st_montferrandlechateau__stade,0
PLANOIS1,"Planoise",47.217316,5.96638,0,st_planoise,0
BREGILLE,"Bregille",47.24379,6.052049,0,st_bregille,1
HBAIGUE2,"Henri Baigue",47.253513,6.025601,0,st_henri_baigue,0
HBAIGUE1,"Henri Baigue",47.253494,6.025517,0,st_henri_baigue,0
ENVELME2,"Envelmey",47.246902,6.05485,0,st_envelmey,0
ENVELME1,"Envelmey",47.24672,6.054475,0,st_envelmey,0
CENTTRI2,"Centre de Tri",47.236378,5.998833,0,st_centre_de_tri,0
CENTTRI1,"Centre de Tri",47.2363,5.998355,0,st_centre_de_tri,1
VAREIL01,"Vareilles",47.24275,6.046672,0,st_vareilles,0
POLYGON1,"Polygone",47.22983,6.01074,0,st_polygone,0
t_tbern2,"Tristan Bernard",47.24816,6.0370765,0,st_tristan_bernard,1
VAREIL02,"Vareilles",47.242767,6.046816,0,st_vareilles,0
t_tbern1,"Tristan Bernard",47.248196,6.0373807,0,st_tristan_bernard,1
POLYGON2,"Polygone",47.22985,6.010425,0,st_polygone,0
REMPART2,"Remparts",47.24402,6.02166,0,st_remparts,0
ROUTEL01,"Osselle-Routelle - Centre",47.167534,5.8504,0,st_osselleroutelle__centre,1
REMPART1,"Remparts",47.24405,6.021673,0,st_remparts,0
ROUTEL02,"Osselle-Routelle - Centre",47.16737,5.850093,0,st_osselleroutelle__centre,1
ROUTEL03,"Osselle-Routelle - Randebelin",47.16953,5.854936,0,st_osselleroutelle__randebelin,0
JANVIER2,"Janvier",47.237698,6.015066,0,st_janvier,1
ROUTEL04,"Osselle-Routelle - Randebelin",47.16949,5.854806,0,st_osselleroutelle__randebelin,0
AUXOUS02,"Les Auxons - Les Marronniers",47.30064,5.95066,0,st_les_auxons__les_marronniers,1
PASSEREL,"Passerelle",47.226967,6.032547,0,st_passerelle,0
AUXOUS01,"Les Auxons - Les Marronniers",47.30064,5.95066,0,st_les_auxons__les_marronniers,1
MIROU1,"Mirounes",47.214596,5.949674,0,st_mirounes,0
AUXOUS06,"Les Auxons - Le Mont",47.292423,5.952345,0,st_les_auxons__le_mont,0
MIROU2,"Mirounes",47.214596,5.949674,0,st_mirounes,0
AUXOUS05,"Les Auxons - Le Mont",47.29235,5.952499,0,st_les_auxons__le_mont,0
t_flo2,"Flore",47.24549,6.028106,0,st_flore,1
LUMIERE2,"Lumière",47.250782,6.018365,0,st_lumiere,1
LUMIERE1,"Lumière",47.251083,6.018096,0,st_lumiere,1
t_flo1,"Flore",47.245533,6.028025,0,st_flore,1
GAIFFE1,"Gaiffe",47.24273,6.041277,0,st_gaiffe,1
PUGEY01,"Pugey - Les Clairons",47.174866,5.97964,0,st_pugey__les_clairons,0
PONTVEL1,"Pont de Velotte",47.216946,6.017778,0,st_pont_de_velotte,0
PONTVEL2,"Pont de Velotte",47.216946,6.017778,0,st_pont_de_velotte,0
GAIFFE2,"Gaiffe",47.242603,6.041213,0,st_gaiffe,1
BAILLE1,"Baille",47.251816,6.035539,0,st_baille,0
BQTSO01,"Bouquet de Soleils",47.26603,6.023893,0,st_bouquet_de_soleils,0
PUGEY09,"Pugey - Carrefour",47.17841,5.994284,0,st_pugey__carrefour,0
BAILLE2,"Baille",47.25124,6.034726,0,st_baille,0
BQTSO02,"Bouquet de Soleils",47.26583,6.023334,0,st_bouquet_de_soleils,0
STVIT25,"Saint-Vit - Planches",47.183224,5.81233,0,st_saintvit__planches,0
STVIT22,"Saint-Vit - Poudrière",47.18045,5.804286,0,st_saintvit__poudriere,0
PUGEY07,"Pugey - Haut Bonnet Rond",47.166138,5.99878,0,st_pugey__haut_bonnet_rond,0
AUXOUS09,"Les Auxons - Lotissement",47.296608,5.946918,0,st_les_auxons__lotissement,0
PUGEY06,"Pugey - Lotissement",47.185703,5.989625,0,st_pugey__lotissement,0
STVIT23,"Saint-Vit - Poudrière",47.1804,5.8042,0,st_saintvit__poudriere,0
P+RHDC01,"Hauts du Chazal",47.221443,5.951281,0,st_hauts_du_chazal,0
STVIT28,"Saint-Vit - La Faucine",47.177334,5.791348,0,st_saintvit__la_faucine,0
PUGEY05,"Pugey - Lotissement",47.18621,5.989708,0,st_pugey__lotissement,0
PUGEY04,"Pugey - Village",47.184692,5.991604,0,st_pugey__village,0
STVIT26,"Saint-Vit - Les Vallons",47.185375,5.82076,0,st_saintvit__les_vallons,1
PUGEY03,"Pugey - Village",47.18477,5.99163,0,st_pugey__village,0
STVIT27,"Saint-Vit - Les Vallons",47.185005,5.819122,0,st_saintvit__les_vallons,1
STETHER1,"Ste Thérèse",47.22875,6.0093,0,st_ste_therese,0
AUXOUS10,"Les Auxons - Lotissement",47.295666,5.946132,0,st_les_auxons__lotissement,0
RECLUS1,"Reclus",47.260933,6.014727,0,st_reclus,1
RECLUS2,"Reclus",47.26069,6.014927,0,st_reclus,1
PALISE02,"Palise - Mairie",47.371536,6.091019,0,st_palise__mairie,0
PASSERE1,"Passerelle",47.226868,6.032685,0,st_passerelle,0
PALISE01,"Palise - Mairie",47.371536,6.091019,0,st_palise__mairie,0
PUGEY12,"Pugey - Bas Bonnet Rond",47.17392,5.997291,0,st_pugey__bas_bonnet_rond,0
PUGEY11,"Pugey - Bas Bonnet Rond",47.173714,5.997362,0,st_pugey__bas_bonnet_rond,0
CHEMPAL1,"Chemin de Palente",47.268814,6.047417,0,st_chemin_de_palente,0
CHEMPAL2,"Chemin de Palente",47.268967,6.04736,0,st_chemin_de_palente,0
GAVIONO2,"Gare Viotte Nord",47.247215,6.020407,0,st_gare_viotte_nord,1
GAVIONO1,"Gare Viotte Nord",47.24695,6.019811,0,st_gare_viotte_nord,1
STVIT10,"Saint-Vit - Centre-Ville",47.18266,5.81242,0,st_saintvit__centreville,0
BREME2,"Brême",47.24863,6.057645,0,st_breme,0
BREME1,"Brême",47.24819,6.057385,0,st_breme,0
ESSARTS2,"Essarts",47.2682,6.010196,0,st_essarts,0
ESSARTS1,"Essarts",47.268227,6.010089,0,st_essarts,0
STVIT09,"Saint-Vit - Centre-Ville",47.1825,5.81222,0,st_saintvit__centreville,0
ROCHE18,"Roche-lez-Beaupré - Centre Commercial",47.272484,6.10328,0,st_rochelezbeaupre__centre_commercial,1
ROCHE17,"Roche-lez-Beaupré - Centre Commercial",47.272484,6.10328,0,st_rochelezbeaupre__centre_commercial,1
ROCHE16,"Roche-lez-Beaupré - Cimetiere",47.27245,6.110183,0,st_rochelezbeaupre__cimetiere,1
STVIT02,"Saint-Vit - Bois Murie",47.20271,5.821983,0,st_saintvit__bois_murie,0
STVIT03,"Saint-Vit - Foulottière",47.18979,5.820296,0,st_saintvit__foulottiere,0
CHRUJM,"CHU Minjoz",47.22732,5.965506,0,st_chu_minjoz,1
ROCHE12,"Roche-lez-Beaupré - Place",47.275703,6.113453,0,st_rochelezbeaupre__place,1
STVIT01,"Saint-Vit - Bois Murie",47.20271,5.821983,0,st_saintvit__bois_murie,0
STVIT06,"Saint-Vit - Gare",47.18337,5.808209,0,st_saintvit__gare,0
ROCHE10,"Roche-lez-Beaupré - Tamaris",47.276585,6.116338,0,st_rochelezbeaupre__tamaris,0
STVIT05,"Saint-Vit - Gare",47.18321,5.80822,0,st_saintvit__gare,0
DENROCH1,"Denfert Rochereau",47.243217,6.026273,0,st_denfert_rochereau,1
DENROCH2,"Denfert Rochereau",47.243076,6.026127,0,st_denfert_rochereau,1
BEURE15,"Beure - Vierge",47.20507,5.99965,0,st_beure__vierge,0
STVIT20,"Saint-Vit - Ougney",47.182907,5.798685,0,st_saintvit__ougney,0
DELUZ08,"Deluz - Fretille",47.296112,6.1938887,0,st_deluz__fretille,0
STVIT21,"Saint-Vit - Ougney",47.182613,5.799389,0,st_saintvit__ougney,0
BEURE14,"Beure - Escale",47.210743,6.001055,0,st_beure__escale,0
DELUZ04,"Deluz - Centre",47.294518,6.201003,0,st_deluz__centre,0
DELUZ07,"Deluz - Fretille",47.296013,6.194466,0,st_deluz__fretille,0
BEURE13,"Beure - Escale",47.210484,6.001108,0,st_beure__escale,0
DELUZ01,"Deluz - Chapelle",47.296272,6.190768,0,st_deluz__chapelle,0
DELUZ03,"Deluz - Centre",47.294308,6.200728,0,st_deluz__centre,1
REFUGE1,"Refuge",47.255703,6.023619,0,st_refuge,0
DELUZ02,"Deluz - Chapelle",47.296112,6.191111,0,st_deluz__chapelle,0
PRECLAI2,"Pré au Clair",47.258755,6.027745,0,st_pre_au_clair,0
STVIT19,"Saint-Vit - Collège Jaurès",47.1839,5.81822,0,st_saintvit__college_jaures,0
PRECLAI1,"Pré au Clair",47.258766,6.0276,0,st_pre_au_clair,0
POLSPOR2,"Pôle Sportif",47.250816,6.000534,0,st_pole_sportif,0
POLSPOR1,"Pôle Sportif",47.250816,6.000504,0,st_pole_sportif,0
FLUAGA1,"Fluttes Agasses",47.256897,6.028307,0,st_fluttes_agasses,0
FLUAGA2,"Fluttes Agasses",47.257416,6.028446,0,st_fluttes_agasses,0
STVIT11,"Saint-Vit - Zone des Belles Ouvrières",47.186394,5.826528,0,st_saintvit__zone_des_belles_ouvrieres,0
STVIT12,"Saint-Vit - Zone des Belles Ouvrières",47.186394,5.826528,0,st_saintvit__zone_des_belles_ouvrieres,0
STVIT17,"Saint-Vit - Roussey",47.18083,5.805652,0,st_saintvit__roussey,0
STVIT18,"Saint-Vit - Roussey",47.18083,5.805652,0,st_saintvit__roussey,0
ROCHE21,"Roche-lez-Beaupré - Commerce",47.275185,6.113105,0,st_rochelezbeaupre__commerce,0
STVIT15,"Saint-Vit - Benusse",47.189983,5.855451,0,st_saintvit__benusse,0
PISCHAL,"Chalezeule - Piscine Chalezeule",47.266552,6.073006,0,st_chalezeule__piscine_chalezeule,1
STVIT16,"Saint-Vit - Benusse",47.189983,5.855451,0,st_saintvit__benusse,0
BEURE08,"Beure - Stade",47.20535,5.998211,0,st_beure__stade,0
BEURE07,"Beure - Escale",47.20939,6.000518,0,st_beure__escale,0
BEURE09,"Beure - Fleuret",47.20686,6.004794,0,st_beure__fleuret,1
BEURE04,"Beure - Rang",47.204082,6.000648,0,st_beure__rang,0
BEURE03,"Beure - Rang",47.20413,6.000822,0,st_beure__rang,0
BEURE06,"Beure - Village",47.20867,6.003798,0,st_beure__village,1
BEURE05,"Beure - Village",47.20882,6.003797,0,st_beure__village,1
FAUBTAR1,"Faubourg Tarragnoz",47.22884,6.031476,0,st_faubourg_tarragnoz,0
FAUBTAR2,"Faubourg Tarragnoz",47.228947,6.031465,0,st_faubourg_tarragnoz,0
BEURE02,"Beure - Les Cras",47.20169,5.997908,0,st_beure__les_cras,0
BEURE01,"Beure - Les Cras",47.201588,5.997829,0,st_beure__les_cras,0
LECOURB1,"Lecourbe",47.23057,6.02812,0,st_lecourbe,0
LECOURB2,"Lecourbe",47.231506,6.026261,0,st_lecourbe,0
MESLIER2,"Meslier",47.231228,5.993072,0,st_meslier,0
MESLIER1,"Meslier",47.23138,5.991965,0,st_meslier,0
HAUTCHA1,"Hauts du Chazal",47.222027,5.951724,0,st_hauts_du_chazal,1
HAUTCHA2,"Hauts du Chazal",47.221954,5.951575,0,st_hauts_du_chazal,1
LEBEUF1,"Lebeuf",47.258564,6.044786,0,st_lebeuf,0
LARMET1,"Larmet",47.24955,6.019724,0,st_larmet,1
LEBEUF2,"Lebeuf",47.259277,6.045693,0,st_lebeuf,0
LARMET2,"Larmet",47.24926,6.020014,0,st_larmet,1
FRANCE31,"France 3",47.231724,6.023316,0,st_france_3,0
CHALEZ05,"Chalèze - La Canaie",47.266468,6.106527,0,st_chaleze__la_canaie,0
GRDPRES2,"Avanne-Aveney - Grand Prés",47.20646,5.964688,0,st_avanneaveney__grand_pres,0
CHALEZ06,"Chalèze - La Canaie",47.266445,6.106693,0,st_chaleze__la_canaie,0
GRDPRES1,"Avanne-Aveney - Grand Prés",47.206657,5.964706,0,st_avanneaveney__grand_pres,0
FOUNOTTE,"Founottes",47.261044,5.995986,0,st_founottes,0
MOINGEO1,"Résidence Moingeon",47.224247,6.011983,0,st_residence_moingeon,0
CHALEZ03,"Chalèze - Village",47.26841,6.086941,0,st_chaleze__village,1
CHALEZ04,"Chalèze - Village",47.268414,6.086948,0,st_chaleze__village,1
CHALEZ09,"Chalèze - Haut",47.26348,6.09114,0,st_chaleze__haut,0
LAFAYET2,"La Fayette",47.21211,5.971838,0,st_la_fayette,1
BRAILL02,"Braillans - Mairie",47.30848,6.090138,0,st_braillans__mairie,1
LAFAYET1,"La Fayette",47.212135,5.971709,0,st_la_fayette,1
RADIEUS1,"Radieuse",47.226025,6.009552,0,st_radieuse,0
BRAILL01,"Braillans - Mairie",47.308456,6.089995,0,st_braillans__mairie,1
RADIEUS2,"Radieuse",47.226334,6.009186,0,st_radieuse,0
CHALEZ08,"Chalèze - Village",47.268055,6.088106,0,st_chaleze__village,0
t_lvai1,"Les Vaîtes",47.25324,6.043249,0,st_les_vaites,1
MOINGEO2,"Résidence Moingeon",47.22452,6.011673,0,st_residence_moingeon,0
t_lvai2,"Les Vaîtes",47.253136,6.0429354,0,st_les_vaites,1
CHALEZ02,"Chalèze - Ecluse",47.270855,6.084734,0,st_chaleze__ecluse,0
COMBMA01,"Combe Maçon",47.277145,6.015551,0,st_combe_macon,0
FABRE1,"Fabre",47.239,6.039701,0,st_fabre,0
COMBMA02,"Combe Maçon",47.277145,6.015551,0,st_combe_macon,0
DANNE,"Dannemarie-sur-Crète - Echangeur",47.20062,5.874802,0,st_dannemariesurcrete__echangeur,1
ECOLETO2,"Ecole des Torcols",47.26985,6.008076,0,st_ecole_des_torcols,0
ECOLETO1,"Ecole des Torcols",47.269123,6.008686,0,st_ecole_des_torcols,0
FABRE2,"Fabre",47.238865,6.039383,0,st_fabre,0
COLDIDE1,"Collège Diderot",47.221764,5.970604,0,st_college_diderot,1
JOURAN02,"Jourande",47.224003,6.036985,0,st_jourande,0
JOURAN01,"Jourande",47.224003,6.036985,0,st_jourande,0
COLDIDE2,"Collège Diderot",47.221844,5.97057,0,st_college_diderot,1
CHARMAR1,"Charmarin",47.228115,6.049769,0,st_charmarin,0
CHARMAR2,"Charmarin",47.228275,6.050047,0,st_charmarin,0
BELVEDE1,"Belvédère",47.250763,6.026815,0,st_belvedere,0
MERMOZ3,"Mermoz dia",47.24747,6.03758,0,st_mermoz_dia,0
MERMOZ2,"Mermoz",47.24698,6.03687,0,st_mermoz,0
MUTUALI2,"Mutualité",47.257523,6.036479,0,st_mutualite,1
MUTUALI1,"Mutualité",47.257694,6.036855,0,st_mutualite,1
MERMOZ1,"Mermoz",47.247368,6.037446,0,st_mermoz,0
t_cham2,"Chamars",47.233673,6.0202494,0,st_chamars,1
VAIPT06,"Vaire - Les Castors",47.28718,6.140356,0,st_vaire__les_castors,0
t_cham1,"Chamars",47.233738,6.0203433,0,st_chamars,1
VAIPT02,"Vaire - Mairie",47.287037,6.147059,0,st_vaire__mairie,1
ANTOIN02,"Antoine",47.27598,6.012526,0,st_antoine,0
VAIPT05,"Vaire - Les Castors",47.287163,6.140191,0,st_vaire__les_castors,0
TROICH01,"Trois Châtels",47.22687,6.036985,0,st_trois_chatels,0
ANTOIN01,"Antoine",47.27598,6.012526,0,st_antoine,0
TROICH02,"Trois Châtels",47.22687,6.036381,0,st_trois_chatels,0
GRANGEB1,"Grange Borée",47.26922,6.02481,0,st_grange_boree,0
JACQUAR2,"Jacquard",47.23848,5.994023,0,st_jacquard,0
JACQUAR1,"Jacquard",47.23823,5.994144,0,st_jacquard,0
VAIPT01,"Vaire - Mairie",47.287125,6.147036,0,st_vaire__mairie,1
GRANGEB2,"Grange Borée",47.26938,6.02507,0,st_grange_boree,0
CHEMVEL2,"Chemin de Velotte",47.220257,6.016269,0,st_chemin_de_velotte,0
CHEMVEL1,"Chemin de Velotte",47.220005,6.016436,0,st_chemin_de_velotte,0
VHUGODEV,"Victor Hugo",47.23431,6.029981,0,st_victor_hugo,0
VENISE04,"Venise - Les Vernes",47.35694,6.109783,0,st_venise__les_vernes,0
ESPERAN1,"Espérance",47.261852,6.027439,0,st_esperance,0
VENISE05,"Venise - Jean Moulin",47.344933,6.10421,0,st_venise__jean_moulin,0
ESPERAN2,"Espérance",47.26145,6.027528,0,st_esperance,0
VENISE06,"Venise - Jean Moulin",47.34508,6.104518,0,st_venise__jean_moulin,0
PIREY01,"Pirey - Rue du Collège",47.258495,5.95964,0,st_pirey__rue_du_college,0
VENISE02,"Venise - Fontaine Centrale",47.347492,6.108729,0,st_venise__fontaine_centrale,0
PIREY02,"Pirey - Rue du Collège",47.258465,5.959465,0,st_pirey__rue_du_college,0
UFRSANT2,"UFR Santé",47.22322,5.956058,0,st_ufr_sante,0
DANNE2,"Dannemarie-sur-Crète - Echangeur",47.200996,5.874537,0,st_dannemariesurcrete__echangeur,1
UFRSANT1,"UFR Santé",47.22321,5.9560003,0,st_ufr_sante,1
GARNIER2,"Garnier",47.215572,5.967205,0,st_garnier,1
GARNIER1,"Garnier",47.2157,5.967318,0,st_garnier,1
FLEMING1,"Fleming",47.23086,5.96804,0,st_fleming,0
ARAGO1,"Campus Arago",47.250774,5.9860315,0,st_campus_arago,1
FLEMING2,"Fleming",47.23071,5.967651,0,st_fleming,1
ARAGO2,"Campus Arago",47.250546,5.9856706,0,st_campus_arago,1
DAVID1,"David",47.23722,6.00638,0,st_david,0
PIREY03,"Pirey - Monument",47.26213,5.965354,0,st_pirey__monument,0
CHAZEU19,"Chalezeule - Jardins de Cocagne",47.256668,6.075884,0,st_chalezeule__jardins_de_cocagne,0
PIREY04,"Pirey - Monument",47.2621,5.965257,0,st_pirey__monument,0
CHAZEU18,"Chalezeule - Combottes",47.25528,6.069442,0,st_chalezeule__combottes,0
VELOTTE1,"Velotte",47.219486,6.011532,0,st_velotte,0
DAVID2,"David",47.237087,6.005687,0,st_david,0
VELOTTE2,"Velotte",47.21915,6.01109,0,st_velotte,0
CHAZEU17,"Chalezeule - Combottes",47.255257,6.069388,0,st_chalezeule__combottes,0
CHAZEU16,"Chalezeule - Camping",47.262707,6.068299,0,st_chalezeule__camping,0
PIREY07,"Pirey - Cartannaz",47.254105,5.953968,0,st_pirey__cartannaz,0
CHAZEU15,"Chalezeule - Camping",47.26341,6.067749,0,st_chalezeule__camping,0
PIREY09,"Pirey - Z.I. Louvière",47.25302,5.967095,0,st_pirey__zi_louviere,0
CHAZEU14,"Chalezeule - Fours à Chaux",47.25334,6.064045,0,st_chalezeule__fours_a_chaux,0
CHAZEU13,"Chalezeule - Fours à Chaux",47.253376,6.06437,0,st_chalezeule__fours_a_chaux,0
CHAZEU01,"Chalezeule - Abreuvoir",47.26056,6.070071,0,st_chalezeule__abreuvoir,0
t_lila1,"Lilas",47.260723,6.0418797,0,st_lilas,1
t_lila2,"Lilas",47.26069,6.041709,0,st_lilas,1
VIEILL03,"Vieilley - Grand Sauçois",47.3572,6.082536,0,st_vieilley__grand_saucois,0
VIEILL04,"Vieilley - grand Sauçois",47.35694,6.08257,0,st_vieilley__grand_saucois,0
VIEILL01,"Vieilley - Epicerie",47.337093,6.075902,0,st_vieilley__epicerie,0
VIEILL02,"Vieilley - Epicerie",47.33707,6.076357,0,st_vieilley__epicerie,0
BYANSD03,"Byans-sur-Doubs - Gare",47.1184,5.852283,0,st_byanssurdoubs__gare,0
SUARD1,"Suard",47.25021,6.029984,0,st_suard,0
BYANSD06,"Byans-sur-Doubs - Primaire",47.117508,5.857223,0,st_byanssurdoubs__primaire,0
BESDID01,"Diderot (devant gymnase)",47.220615,5.970661,0,st_diderot_devant_gymnase,0
BYANSD05,"Byans-sur-Doubs - Primaire",47.117508,5.857223,0,st_byanssurdoubs__primaire,0
CHAZEU09,"Chalezeule - Centre Commercial",47.262375,6.063927,0,st_chalezeule__centre_commercial,1
CHAZEU04,"Chalezeule - Fontaine",47.25915,6.075277,0,st_chalezeule__fontaine,0
CHAZEU03,"Chalezeule - Fontaine",47.259262,6.075144,0,st_chalezeule__fontaine,0
CHAZEU02,"Chalezeule - Abreuvoir",47.260147,6.070827,0,st_chalezeule__abreuvoir,0
NAITOUR2,"Naitoure",47.261944,5.9863887,0,st_naitoure,0
PONCHFR2,"Pont Chemin Français",47.252598,6.023905,0,st_pont_chemin_francais,0
NAITOUR1,"Naitoure",47.261692,5.987469,0,st_naitoure,0
DANEM10,"Dannemarie-sur-Crète - Damprichard",47.202362,5.860934,0,st_dannemariesurcrete__damprichard,1
PONCHFR1,"Pont Chemin Français",47.252514,6.02365,0,st_pont_chemin_francais,0
PORDOUV1,"Port Douvot",47.20706,5.993301,0,st_port_douvot,1
DEVIGNY2,"De Vigny",47.215397,5.961896,0,st_de_vigny,1
GRAVIROT,"Gravirot",47.241665,6.044722,0,st_gravirot,0
DEVIGNY1,"De Vigny",47.21521,5.961123,0,st_de_vigny,1
AUBERG01,"Auberge",47.217777,6.048749,0,st_auberge,0
DANEM07,"Dannemarie-sur-Crète - Ecole Maternelle",47.20476,5.870249,0,st_dannemariesurcrete__ecole_maternelle,0
AUBERG02,"Auberge",47.217777,6.048749,0,st_auberge,0
CFRANCA1,"Chemin Français",47.249626,6.020716,0,st_chemin_francais,0
DANEM08,"Dannemarie-sur-Crète - Ecole Maternelle",47.204807,5.870455,0,st_dannemariesurcrete__ecole_maternelle,0
CHANOIS1,"Chanois",47.2487,6.027008,0,st_chanois,0
DANEM05,"Dannemarie-sur-Crète - Eglise",47.206936,5.863155,0,st_dannemariesurcrete__eglise,1
CHANOIS2,"Chanois",47.2492,6.026901,0,st_chanois,0
DANEM03,"Dannemarie-sur-Crète - Vieilles Perrières",47.205082,5.864701,0,st_dannemariesurcrete__vieilles_perrieres,0
CHAZEU20,"Chalezeule - Jardins de Cocagne",47.2569,6.075992,0,st_chalezeule__jardins_de_cocagne,0
MONTARMO,"Montarmots",47.272675,6.030375,0,st_montarmots,0
DANEM01,"Dannemarie-sur-Crète - Gare",47.203224,5.873568,0,st_dannemariesurcrete__gare,1
PIREY10,"Pirey - Z.I. Louvière",47.25306,5.967122,0,st_pirey__zi_louviere,0
CHASNOT1,"Chasnot",47.252148,6.026228,0,st_chasnot,0
DANEM02,"Dannemarie-sur-Crète - Gare",47.203457,5.873388,0,st_dannemariesurcrete__gare,1
PIREY11,"Pirey - Coteau St Martin",47.25931,5.964282,0,st_pirey__coteau_st_martin,0
CHASNOT2,"Chasnot",47.25194,6.026963,0,st_chasnot,0
PIREY12,"Pirey - Coteau St Martin",47.259693,5.964014,0,st_pirey__coteau_st_martin,0
DUCHAIL1,"Duchaillut",47.25307,6.03025,0,st_duchaillut,0
MAIRIE1,"Mairie",47.23661,6.022457,0,st_mairie,0
USPORTS1,"U-Sports",47.25215,5.99036,0,st_usports,1
USPORTS2,"U-Sports",47.25226,5.99024,0,st_usports,1
ECOLE4V2,"Ecole des 4 vents",47.26349,6.032386,0,st_ecole_des_4_vents,0
PIREY17,"Pirey - Les Cryots",47.26394,5.968634,0,st_pirey__les_cryots,0
PIREY18,"Pirey - Les Cryots",47.26394,5.968634,0,st_pirey__les_cryots,0
AMPERE3,"Ampère",47.23662,5.988662,0,st_ampere,0
JUSTICE1,"Justices",47.254726,6.014658,0,st_justices,1
AMPERE1,"Ampère",47.237457,5.98833,0,st_ampere,0
JUSTICE2,"Justices",47.25436,6.01496,0,st_justices,1
GAREVIO1,"Gare Viotte",47.24618,6.022168,0,st_gare_viotte,1
GAREVIO2,"Gare Viotte",47.246204,6.021949,0,st_gare_viotte,1
VIEILLE1,"Vieilley",47.26549,6.034121,0,st_vieilley,0
MARCHA01,"Marchaux-Chaudefontaine - Champs de Foire",47.324318,6.136668,0,st_marchauxchaudefontaine__champs_de_foire,0
VIEILLE2,"Vieilley",47.265015,6.033507,0,st_vieilley,0
CROIZ01,"Croizat",47.221615,5.959959,0,st_croizat,0
CROIZ02,"Croizat",47.221527,5.96,0,st_croizat,0
PONSNCF1,"Pont SNCF",47.25023,6.025522,0,st_pont_sncf,0
GRENOT1,"Grenot",47.256027,6.016751,0,st_grenot,0
GRENOT2,"Grenot",47.256367,6.016822,0,st_grenot,0
ORATOIR1,"Oratoire",47.22803,5.984458,0,st_oratoire,1
CROUUNI1,"Crous Université",47.24838,5.98683,0,st_crous_universite,0
CROUUNI2,"Crous Université",47.24853,5.98644,0,st_crous_universite,0
POSTE2,"Poste",47.23971,6.026629,0,st_poste,1
POSTE1,"Poste",47.239204,6.025745,0,st_poste,1
ORATOIR2,"Oratoire",47.228016,5.984114,0,st_oratoire,1
CHEMAU08,"Chemaudin et Vaux - La Nouelle",47.223972,5.895206,0,st_chemaudin_et_vaux__la_nouelle,0
CHEMAU07,"Chemaudin et Vaux - La Nouelle",47.22397,5.895083,0,st_chemaudin_et_vaux__la_nouelle,0
CHEMAU09,"Chemaudin et Vaux - Village",47.223858,5.891474,0,st_chemaudin_et_vaux__village,0
MAGELLA1,"Magellan",47.24885,6.047121,0,st_magellan,0
GENNES03,"Gennes - Bascule",47.245003,6.120472,0,st_gennes__bascule,0
GENNES02,"Gennes - Mairie",47.24487,6.123399,0,st_gennes__mairie,0
CASSIN1,"Cassin",47.219383,5.970314,0,st_cassin,0
GENNES01,"Gennes - Mairie",47.24485,6.123249,0,st_gennes__mairie,0
CASSIN2,"Cassin",47.2192,5.969551,0,st_cassin,0
AUXSUS01,"Les Auxons - Grand Bois",47.306335,5.969855,0,st_les_auxons__grand_bois,0
AUXSUS02,"Les Auxons - Grand Bois",47.306595,5.969679,0,st_les_auxons__grand_bois,0
CHEMAU06,"Chemaudin et Vaux - Longeaige",47.226357,5.900444,0,st_chemaudin_et_vaux__longeaige,0
CHEMAU05,"Chemaudin et Vaux - Longeaige",47.226208,5.900534,0,st_chemaudin_et_vaux__longeaige,0
DEVECE08,"Devecey - Centre Commercial",47.327103,6.012662,0,st_devecey__centre_commercial,1
AUXSUS05,"Les Auxons - Côteau",47.30093,5.9784,0,st_les_auxons__coteau,0
AUXSUS06,"Les Auxons - Côteau",47.30093,5.9784,0,st_les_auxons__coteau,0
AUXSUS03,"Les Auxons - Les Vignes",47.301666,5.974166,0,st_les_auxons__les_vignes,0
DEVECE07,"Devecey - Centre Commercial",47.327232,6.012639,0,st_devecey__centre_commercial,1
AUXSUS04,"Les Auxons - Les Vignes",47.301804,5.974127,0,st_les_auxons__les_vignes,0
GENNES08,"Gennes - La Ramée",47.242683,6.148257,0,st_gennes__la_ramee,0
DORMO01,"Dormoy",47.280437,6.019864,0,st_dormoy,0
GENNES07,"Gennes - La Ramée",47.242733,6.148059,0,st_gennes__la_ramee,0
DORMO02,"Dormoy",47.280437,6.019864,0,st_dormoy,0
GENNES06,"Gennes - Litonière",47.242302,6.123681,0,st_gennes__litoniere,1
GENNES05,"Gennes - Litonière",47.242355,6.123604,0,st_gennes__litoniere,1
AUXSUS07,"Les Auxons - Les Chênes",47.30153,5.96826,0,st_les_auxons__les_chenes,0
GENNES04,"Gennes - Bascule",47.244953,6.120547,0,st_gennes__bascule,0
AUXSUS08,"Les Auxons - Les Chênes",47.301495,5.968247,0,st_les_auxons__les_chenes,0
DEVECE04,"Devecey - Route de Besançon",47.32715,6.008213,0,st_devecey__route_de_besancon,0
CARMES1,"Carmes",47.236267,6.026047,0,st_carmes,1
DEVECE03,"Devecey - Route de Besançon",47.326923,6.007875,0,st_devecey__route_de_besancon,0
CHEMAU10,"Chemaudin et Vaux - Village",47.223915,5.891487,0,st_chemaudin_et_vaux__village,0
GAREMOU2,"Gare de la Mouillère",47.24111,6.032986,0,st_gare_de_la_mouillere,0
CHEMAU13,"Chemaudin et Vaux - Z.I.",47.209724,5.902801,0,st_chemaudin_et_vaux__zi,0
THOURET1,"Thouret",47.24075,5.977908,0,st_thouret,0
AUXSUS12,"Les Auxons - Village",47.30154,5.971521,0,st_les_auxons__village,0
CHEMAU15,"Chemaudin et Vaux - Les Boutons",47.21966,5.895198,0,st_chemaudin_et_vaux__les_boutons,0
GAREMOU1,"Gare de la Mouillère",47.240574,6.033455,0,st_gare_de_la_mouillere,0
THOURET2,"Thouret",47.240707,5.977846,0,st_thouret,0
AUXSUS13,"Les Auxons - Maupommier",47.301018,5.963062,0,st_les_auxons__maupommier,1
AUXSUS11,"Les Auxons - Village",47.301575,5.971525,0,st_les_auxons__village,0
CHEMAU16,"Chemaudin et Vaux - Les Boutons",47.21966,5.895198,0,st_chemaudin_et_vaux__les_boutons,0
ISENBAR2,"Isenbart",47.242767,6.025262,0,st_isenbart,1
ISENBAR1,"Isenbart",47.242905,6.025027,0,st_isenbart,1
AUXSUS14,"Les Auxons - Maupommier",47.30101,5.963155,0,st_les_auxons__maupommier,1
FRANO16,"Franois - Quatre Journaux",47.21846,5.944237,0,st_franois__quatre_journaux,0
FONTENO3,"Fontenottes",47.238064,6.036415,0,st_fontenottes,0
FONTENO4,"Fontenottes",47.23802,6.03633,0,st_fontenottes,0
AVANNE20,"Avanne-Aveney - Combots",47.207104,5.964762,0,st_avanneaveney__combots,0
BETOIL03,"Grandfontaine - La Belle Etoile",47.210915,5.933023,0,st_grandfontaine__la_belle_etoile,0
FONTAI05,"Fontain - Ecole",47.200047,6.02846,0,st_fontain__ecole,0
CRASROU1,"Cras Rougeot",47.216473,6.002803,0,st_cras_rougeot,0
BETOIL04,"Grandfontaine - Giratoire",47.21454,5.938379,0,st_grandfontaine__giratoire,0
CRASROU2,"Cras Rougeot",47.216785,6.003529,0,st_cras_rougeot,0
t_idf2,"Ile de France",47.222034,5.9672446,0,st_ile_de_france,1
BETOIL01,"Grandfontaine - La Belle Etoile",47.21125,5.934333,0,st_grandfontaine__la_belle_etoile,1
FONTAI03,"Fontain - Forêt",47.185665,6.049629,0,st_fontain__foret,0
BETOIL02,"Grandfontaine - La Belle Etoile",47.211143,5.933954,0,st_grandfontaine__la_belle_etoile,1
FONTAI04,"Fontain - Forêt",47.185555,6.0494447,0,st_fontain__foret,0
FONTAI01,"Fontain - Le Croc",47.19968,6.051385,0,st_fontain__le_croc,0
TILEROY1,"Tilleroyes",47.235535,5.961739,0,st_tilleroyes,1
t_idf1,"Ile de France",47.221825,5.967356,0,st_ile_de_france,1
FONTAI02,"Fontain - Le Croc",47.199444,6.051111,0,st_fontain__le_croc,0
SANATOR1,"Sanatorium",47.236176,5.971192,0,st_sanatorium,0
SANATOR2,"Sanatorium",47.23613,5.970638,0,st_sanatorium,0
THISE30,"Thise - Route de Besançon",47.277283,6.068142,0,st_thise__route_de_besancon,0
THISE36,"Thise - Bruyères",47.27154,6.061854,0,st_thise__bruyeres,0
THISE35,"Thise - Bruyères",47.271683,6.062012,0,st_thise__bruyeres,0
COLCAM1,"Collège Camus",47.258923,6.010331,0,st_college_camus,1
VESOUL3,"Vesoul",47.25295,6.016332,0,st_vesoul,1
COLCAM2,"Collège Camus",47.258938,6.010316,0,st_college_camus,1
BUFFON1,"Buffon",47.25507,6.01865,0,st_buffon,0
CHAVANN2,"Chavanney",47.222897,6.013568,0,st_chavanney,0
VESOUL4,"Vesoul",47.25319,6.016087,0,st_vesoul,1
CHAVANN1,"Chavanney",47.222435,6.013819,0,st_chavanney,0
AVANNE19,"Avanne-Aveney - Combots",47.207073,5.964724,0,st_avanneaveney__combots,0
GOUNOD1,"Gounod",47.261578,6.036547,0,st_gounod,0
CITBAUM2,"Cité de la Baume",47.245934,5.997442,0,st_cite_de_la_baume,1
t_gvio1,"Gare Viotte",47.24635,6.021987,0,st_gare_viotte,1
CITBAUM1,"Cité de la Baume",47.245937,5.997644,0,st_cite_de_la_baume,1
t_gvio2,"Gare Viotte",47.246326,6.0221725,0,st_gare_viotte,1
GOUNOD2,"Gounod",47.261646,6.036367,0,st_gounod,1
PALSPOR1,"Palais des Sports",47.24593,6.0007,0,st_palais_des_sports,1
JULEHAG4,"Lycée Jules Haag",47.24162,6.01442,0,st_lycee_jules_haag,1
PALSPOR2,"Palais des Sports",47.24603,6.00058,0,st_palais_des_sports,1
JULEHAG3,"Lycée Jules Haag",47.24133,6.01423,0,st_lycee_jules_haag,1
JULEHAG2,"Lycée Jules Haag",47.239002,6.011634,0,st_lycee_jules_haag,0
PETICH02,"Petit Chaudanne",47.227177,6.016696,0,st_petit_chaudanne,0
THISE41,"Thise - Combe Balland",47.26537,6.06082,0,st_thise__combe_balland,0
PETICH01,"Petit Chaudanne",47.227177,6.016696,0,st_petit_chaudanne,0
THISE48,"Thise - Rossignol",47.278927,6.064399,0,st_thise__rossignol,0
THISE47,"Thise - Bouleraie",47.276302,6.061444,0,st_thise__bouleraie,0
TALLEN01,"Tallenay - Vauciels",47.30647,6.021633,0,st_tallenay__vauciels,1
AVANNE05,"Avanne-Aveney - Mairie",47.20233,5.964934,0,st_avanneaveney__mairie,1
AVANNE06,"Avanne-Aveney - Mairie",47.20203,5.964611,0,st_avanneaveney__mairie,1
AVANNE03,"Avanne-Aveney - Stade",47.201733,5.962181,0,st_avanneaveney__stade,0
AVANNE04,"Avanne-Aveney - Stade",47.2018,5.962079,0,st_avanneaveney__stade,0
MISER14,"Miserey-Salines - Clos des Pins",47.29502,5.993319,0,st_misereysalines__clos_des_pins,0
AVANNE01,"Avanne-Aveney - Pépinières",47.201782,5.957463,0,st_avanneaveney__pepinieres,0
AVANNE02,"Avanne-Aveney - Pépinières",47.201866,5.957924,0,st_avanneaveney__pepinieres,0
MISER13,"Miserey-Salines - Clos des Pins",47.295,5.9930553,0,st_misereysalines__clos_des_pins,0
TALLEN06,"Tallenay - Vie aux Loups",47.298244,6.004963,0,st_tallenay__vie_aux_loups,0
TALLEN05,"Tallenay - Vie aux Loups",47.298237,6.005065,0,st_tallenay__vie_aux_loups,0
FLANDRE3,"Flandres",47.22533,5.972164,0,st_flandres,1
TALLEN04,"Tallenay - Centre",47.30465,6.021783,0,st_tallenay__centre,0
TALLEN03,"Tallenay - Centre",47.304592,6.021841,0,st_tallenay__centre,0
FLANDRE1,"Flandres",47.224888,5.973512,0,st_flandres,1
TALLEN02,"Tallenay - Vauciels",47.306355,6.021657,0,st_tallenay__vauciels,1
THISE51,"Thise - Centre Bourg",47.28289,6.076281,0,st_thise__centre_bourg,0
BEARN2,"Béarn",47.216717,5.963327,0,st_bearn,1
DUET1,"Duet",47.248276,6.043374,0,st_duet,1
DUET2,"Duet",47.248524,6.044344,0,st_duet,1
RESIDEN1,"Résidence",47.2314,5.99742,0,st_residence,1
SAVARY2,"Savary",47.25517,6.003184,0,st_savary,0
SAVARY3,"Savary",47.256382,6.004055,0,st_savary,0
RESIDEN2,"Résidence",47.23164,5.998152,0,st_residence,0
WEISS3,"Weiss",47.24464,6.013038,0,st_weiss,0
BEARN1,"Béarn",47.21667,5.963335,0,st_bearn,0
WEISS4,"Weiss",47.24494,6.012928,0,st_weiss,0
BASILIQ2,"Basilique",47.23322,5.989165,0,st_basilique,0
SAVARY4,"Savary",47.256603,6.004495,0,st_savary,0
BASILIQ1,"Basilique",47.232895,5.988601,0,st_basilique,0
ECMONTB1,"Ecole des Montboucons",47.2587,5.990167,0,st_ecole_des_montboucons,0
TALLEN12,"Tallenay - Tillet",47.290802,5.993428,0,st_tallenay__tillet,0
BRULARD2,"Brulard",47.228237,6.004476,0,st_brulard,0
LABRO02,"La Bro",47.221046,6.041759,0,st_la_bro,0
TALLEN11,"Tallenay - Tillet",47.290802,5.993428,0,st_tallenay__tillet,0
ECMONTB2,"Ecole des Montboucons",47.25892,5.990104,0,st_ecole_des_montboucons,0
LABRO01,"La Bro",47.221046,6.041759,0,st_la_bro,0
AVANNE10,"Avanne-Aveney - Grand Prés",47.20641,5.96479,0,st_avanneaveney__grand_pres,0
ROSET05,"Roset-Fluans - La Corne",47.15186,5.817001,0,st_rosetfluans__la_corne,0
ROSET06,"Roset-Fluans - La Corne",47.15186,5.817001,0,st_rosetfluans__la_corne,0
GIBELOT2,"Gibelotte",47.242455,6.0096865,0,st_gibelotte,1
CHAMPO01,"Champoux - Mairie",47.334057,6.136913,0,st_champoux__mairie,1
GIBELOT1,"Gibelotte",47.24246,6.0098286,0,st_gibelotte,1
CHAMPO02,"Champoux - Mairie",47.334053,6.137048,0,st_champoux__mairie,1
LYCLED1,"Lycée Ledoux",47.253532,6.001212,0,st_lycee_ledoux,0
LYCLED2,"Lycée Ledoux",47.25351,6.001271,0,st_lycee_ledoux,0
FCLERC1,"Francis Clerc",47.255135,6.023194,0,st_francis_clerc,0
LYCLED3,"LYCEE LEDOUX",47.25351,6.001271,0,st_lycee_ledoux,0
ILEDFRA2,"Ile de France",47.221603,5.968277,0,st_ile_de_france,0
ILEDFRA1,"Ile de France",47.221504,5.96855,0,st_ile_de_france,0
FCLERC3,"Francis Clerc",47.25536,6.022604,0,st_francis_clerc,0
MAISRET2,"Avanne-Aveney - Maison de Retraite",47.21227,5.963092,0,st_avanneaveney__maison_de_retraite,1
MAISRET1,"Avanne-Aveney - Maison de Retraite",47.2125,5.963089,0,st_avanneaveney__maison_de_retraite,1
GRDBUIS2,"Grand Buisson",47.267296,6.049666,0,st_grand_buisson,0
GRDBUIS1,"Grand Buisson",47.26762,6.049021,0,st_grand_buisson,0
AVANNE07,"Avanne-Aveney - Chenoz",47.208828,5.969797,0,st_avanneaveney__chenoz,0
AVANNE08,"Avanne-Aveney - Chenoz",47.208897,5.969931,0,st_avanneaveney__chenoz,0
STPIEX2,"St Pie X",47.26309,6.04678,0,st_st_pie_x,0
STPIEX1,"St Pie X",47.26306,6.04682,0,st_st_pie_x,0
FLAM1,"Flammarion",47.260296,5.999845,0,st_flammarion,0
COMSARA1,"Combe Saragosse",47.261604,6.031678,0,st_combe_saragosse,0
CHAILLE2,"Chaille",47.23757,5.976218,0,st_chaille,0
SPORNAU2,"Sport Nautique",47.237015,6.035411,0,st_sport_nautique,0
SPORNAU3,"Sport Nautique",47.237095,6.035275,0,st_sport_nautique,0
CHAILLE1,"Chaille",47.237568,5.976289,0,st_chaille,0
t_revo2,"Révolution",47.24041,6.0228295,0,st_revolution,1
t_revo1,"Révolution",47.240513,6.0230746,0,st_revolution,1
LARNOD05,"Larnod - Lotissement",47.18789,5.968441,0,st_larnod__lotissement,1
POLYCLI5,"Polyclinique",47.21644,5.977323,0,st_polyclinique,0
LARNOD04,"Larnod - Mairie",47.187595,5.973546,0,st_larnod__mairie,1
LARNOD03,"Larnod - Mairie",47.18794,5.97392,0,st_larnod__mairie,1
LARNOD02,"Larnod - Maltournée",47.1924,5.981688,0,st_larnod__maltournee,0
LARNOD09,"Larnod - Gare",47.183853,5.964479,0,st_larnod__gare,0
LARNOD08,"Larnod - Gare",47.18387,5.96334,0,st_larnod__gare,0
LARNOD07,"Larnod - Gare",47.18407,5.963282,0,st_larnod__gare,0
LARNOD06,"Larnod - Lotissement",47.187923,5.968408,0,st_larnod__lotissement,1
LARNOD01,"Larnod - Maltournée",47.19233,5.98168,0,st_larnod__maltournee,0
QUATROU1,"Quatrouillots",47.264755,6.012761,0,st_quatrouillots,0
QUATROU2,"Quatrouillots",47.26548,6.011985,0,st_quatrouillots,0
CITADELL,"Citadelle",47.232155,6.031392,0,st_citadelle,1
RIVOTTE2,"Rivotte",47.230213,6.036795,0,st_rivotte,0
FONTAI21,"Fontain - Château Rose",47.193462,6.035222,0,st_fontain__chateau_rose,0
FONTAI22,"Fontain - Château Rose",47.193478,6.035134,0,st_fontain__chateau_rose,0
CAMUS,"St Claude (Collège Camus)",47.258705,6.009938,0,st_st_claude_college_camus,0
FONTAI20,"Fontain - Chantoubin",47.188953,6.047401,0,st_fontain__chantoubin,0
RIVOTTE5,"Rivotte",47.230484,6.036649,0,st_rivotte,0
t_chr2,"CHU Minjoz",47.22639,5.9636316,0,st_chu_minjoz,1
PSB3,"PSB",47.259678,6.015706,0,st_psb,0
t_chr1,"CHU Minjoz",47.22642,5.963888,0,st_chu_minjoz,1
LABUTTE3,"La Butte",47.234303,6.008889,0,st_la_butte,0
LABUTTE2,"La Butte",47.234295,6.008565,0,st_la_butte,0
PILLOT01,"Pillot",47.271034,6.010294,0,st_pillot,1
PSB1,"PSB",47.25958,6.015671,0,st_psb,0
MALHERB2,"Malherbe",47.22128,6.014861,0,st_malherbe,0
MALHERB1,"Malherbe",47.22096,6.015336,0,st_malherbe,0
CHR1,"CHU Minjoz",47.22708,5.96506,0,st_chu_minjoz,0
t_orc2,"Orchamps",47.262924,6.04513,0,st_orchamps,1
t_orc1,"Orchamps",47.26297,6.045393,0,st_orchamps,1
FONTAI10,"Fontain - fontaine",47.199444,6.0280557,0,st_fontain__fontaine,0
PDC3,"Pont des Cras",47.253487,6.031016,0,st_pont_des_cras,1
FONTAI11,"Fontain - Combotte",47.187782,6.052897,0,st_fontain__combotte,0
BUFFON2,"Buffon",47.25524,6.018697,0,st_buffon,1
PDC1,"Pont des Cras",47.252552,6.030527,0,st_pont_des_cras,1
FONTAI18,"Fontain - Corne aux Vaux",47.1913,6.0406,0,st_fontain__corne_aux_vaux,0
PILLOT02,"Pillot",47.271034,6.010294,0,st_pillot,1
FONTAI19,"Fontain - Canton Viennet",47.19007,6.04493,0,st_fontain__canton_viennet,0
FONTAI16,"Fontain - Fontaine",47.19945,6.019375,0,st_fontain__fontaine,0
FONTAI17,"Fontain - Corne aux Vaux",47.1913,6.0406,0,st_fontain__corne_aux_vaux,0
FONTAI14,"Fontain - Ecole",47.199444,6.0280557,0,st_fontain__ecole,0
FONTAI15,"Fontain - Fontaine",47.199505,6.019473,0,st_fontain__fontaine,0
FONTAI12,"Fontain - Combotte",47.18778,6.052778,0,st_fontain__combotte,0
FONTAI09,"Fontain - fontaine",47.199444,6.0280557,0,st_fontain__fontaine,0
ARTOIS4,"Artois",47.22443,5.97165,0,st_artois,1
ARTOIS3,"Artois",47.223988,5.971575,0,st_artois,1
GRANGES1,"Granges",47.23782,6.0264,0,st_granges,0
CHESELL1,"Chemin de la Selle",47.26913,6.028084,0,st_chemin_de_la_selle,0
FOYER2,"Foyer",47.249622,6.05512,0,st_foyer,0
CHATIL12,"Châtillon-le-Duc - Creux de Navarre",47.302483,6.002534,0,st_chatillonleduc__creux_de_navarre,0
FOYER1,"Foyer",47.249763,6.055562,0,st_foyer,0
CHATIL13,"Châtillon-le-Duc - Bellevue",47.306164,6.008212,0,st_chatillonleduc__bellevue,0
CHATIL14,"Châtillon-le-Duc - Bellevue",47.306175,6.008271,0,st_chatillonleduc__bellevue,0
CHATIL15,"Châtillon-le-Duc - Cayenne",47.314632,5.996208,0,st_chatillonleduc__cayenne,0
t_batt1,"Battant",47.23951,6.019576,0,st_battant,1
CHATIL10,"Châtillon-le-Duc - Barbizets",47.29852,5.99675,0,st_chatillonleduc__barbizets,0
CHATIL11,"Châtillon-le-Duc - Creux de Navarre",47.30259,6.002615,0,st_chatillonleduc__creux_de_navarre,0
FANART1,"Fanart",47.24649,6.011555,0,st_fanart,0
TEMIS4,"Temis",47.25319,5.997265,0,st_temis,0
t_batt2,"Battant",47.239464,6.019442,0,st_battant,1
FANART2,"Fanart",47.24661,6.011541,0,st_fanart,0
TEMIS2,"Temis",47.2533,5.997284,0,st_temis,0
TEMIS1,"Temis",47.2533,5.997284,0,st_temis,0
t_cdp2,"Croix de Palente",47.25719,6.0424175,0,st_croix_de_palente,1
t_cdp1,"Croix de Palente",47.257374,6.0422015,0,st_croix_de_palente,1
CHATIL09,"Châtillon-le-Duc - Barbizets",47.298534,5.996613,0,st_chatillonleduc__barbizets,0
VELESS04,"Velesmes-Essarts - Les Essarts",47.1908,5.862856,0,st_velesmesessarts__les_essarts,0
VELESS05,"Velesmes-Essarts - Zone Artisanale",47.198105,5.875793,0,st_velesmesessarts__zone_artisanale,0
CHATIL05,"Châtillon-le-Duc - Clos du Fort",47.308792,5.999908,0,st_chatillonleduc__clos_du_fort,0
VELESS02,"Velesmes-Essarts - Mairie",47.190903,5.874405,0,st_velesmesessarts__mairie,1
CHATIL06,"Châtillon-le-Duc - Clos du Fort",47.308693,6.000085,0,st_chatillonleduc__clos_du_fort,0
VELESS03,"Velesmes-Essarts - Les Essarts",47.1908,5.862856,0,st_velesmesessarts__les_essarts,0
CHATIL07,"Châtillon-le-Duc - Clos des Pins",47.29502,5.993319,0,st_chatillonleduc__clos_des_pins,0
CHATIL08,"Châtillon-le-Duc - Clos des Pins",47.295166,5.993468,0,st_chatillonleduc__clos_des_pins,0
VELESS01,"Velesmes-Essarts - Mairie",47.190903,5.874405,0,st_velesmesessarts__mairie,1
CHATIL23,"Châtillon-le-Duc - Mazarin",47.304867,6.001253,0,st_chatillonleduc__mazarin,0
CHATIL24,"Châtillon-le-Duc - Mazarin",47.305355,6.001499,0,st_chatillonleduc__mazarin,0
CHATIL20,"Châtillon-le-Duc - Genêtre",47.299313,5.995709,0,st_chatillonleduc__genetre,0
CHATIL21,"Châtillon-le-Duc - Genêtre",47.299774,5.996163,0,st_chatillonleduc__genetre,0
ARGUEL01,"Fontain - Vierge",47.193207,6.000125,0,st_fontain__vierge,0
ARGUEL03,"Fontain - Village",47.19716,6.001027,0,st_fontain__village,1
LACHENA1,"La Chênaie",47.235374,5.9645,0,st_la_chenaie,0
ARGUEL02,"Fontain - Vierge",47.193054,6.0,0,st_fontain__vierge,0
ARGUEL04,"Fontain - Village",47.19703,6.000866,0,st_fontain__village,1
LACHENA2,"La Chênaie",47.235332,5.96445,0,st_la_chenaie,0
CUSSEY01,"Cussey-sur-l'Ognon - Ecole",47.336887,5.940065,0,st_cusseysurlognon__ecole,1
CUSSEY06,"Cussey-sur-l'Ognon - Eglise",47.339733,5.93836,0,st_cusseysurlognon__eglise,0
CHATIL16,"Châtillon-le-Duc - Chemin des Tilles",47.292908,5.995767,0,st_chatillonleduc__chemin_des_tilles,0
CUSSEY02,"Cussey-sur-l'Ognon - Ecole",47.339798,5.938324,0,st_cusseysurlognon__ecole,1
CHATIL17,"Châtillon-le-Duc - Chemin des Tilles",47.29289,5.995975,0,st_chatillonleduc__chemin_des_tilles,0
CIMAVAN1,"Avanne-Aveney - Cimetière d'Avanne",47.20509,5.965302,0,st_avanneaveney__cimetiere_davanne,0
CHESELL2,"Chemin de la Selle",47.269455,6.028132,0,st_chemin_de_la_selle,0
CUSSEY05,"Cussey-sur-l'Ognon - Eglise",47.339733,5.93836,0,st_cusseysurlognon__eglise,0
BACCHUS2,"Bacchus",47.24262,6.021227,0,st_bacchus,0
BACCHUS1,"Bacchus",47.24239,6.020867,0,st_bacchus,0
CASAMENE,"Casamène",47.21929,6.026976,0,st_casamene,0
PREFECT1,"Préfecture",47.2337,6.023057,0,st_prefecture,1
LYCEE3,"Lycée Pergaud",47.26353,6.044087,0,st_lycee_pergaud,1
LYCEE2,"Lycée Pergaud",47.26349,6.044595,0,st_lycee_pergaud,1
PTJOUR1,"Point du Jour",47.26613,6.02039,0,st_point_du_jour,0
PTJOUR2,"Point du Jour",47.26629,6.0207,0,st_point_du_jour,0
MARILOU2,"Marie Louise",47.24918,6.031481,0,st_marie_louise,0
MARILOU1,"Marie Louise",47.248768,6.031517,0,st_marie_louise,1
t_rose2,"Rosemont",47.224987,5.994995,0,st_rosemont,1
STALAGR1,"Stade Léo Lagrange",47.244072,6.0048947,0,st_stade_leo_lagrange,1
STALAGR2,"Stade Léo Lagrange",47.244167,6.0047855,0,st_stade_leo_lagrange,1
t_rose1,"Rosemont",47.225025,5.9952416,0,st_rosemont,1
ILDFRAN3,"Ile de France",47.222607,5.966684,0,st_ile_de_france,1
CHATIL01,"Châtillon-le-Duc - Collège",47.317436,6.002673,0,st_chatillonleduc__college,0
CHATIL02,"Châtillon-le-Duc - Collège",47.31736,6.002664,0,st_chatillonleduc__college,0
CHATIL03,"Châtillon-le-Duc - Léon Baud",47.312714,5.999743,0,st_chatillonleduc__leon_baud,0
CHATIL04,"Châtillon-le-Duc - Léon Baud",47.312836,5.999828,0,st_chatillonleduc__leon_baud,0
MARCHA06,"Marchaux-Chaudefontaine - La Tetotte",47.32105,6.127466,0,st_marchauxchaudefontaine__la_tetotte,0
MARCHA04,"Marchaux-Chaudefontaine - Ecole",47.322872,6.133493,0,st_marchauxchaudefontaine__ecole,0
MARCHA05,"Marchaux-Chaudefontaine - La Tetotte",47.32106,6.1274,0,st_marchauxchaudefontaine__la_tetotte,0
ILDFRAN1,"Ile de France",47.222363,5.966775,0,st_ile_de_france,1
MARCHA02,"Marchaux-Chaudefontaine - Champs de Foire",47.32415,6.136692,0,st_marchauxchaudefontaine__champs_de_foire,0
MARCHA03,"Marchaux-Chaudefontaine - Ecole",47.32317,6.134405,0,st_marchauxchaudefontaine__ecole,0
STRASBOU,"Strasbourg",47.241764,6.022242,0,st_strasbourg,1
CHAILu01,"Chailluz",47.277657,6.028318,0,st_chailluz,0
PPISC2,"Parking Piscine",47.243893,5.999235,0,st_parking_piscine,0
PPISC1,"Parking Piscine",47.243732,5.999196,0,st_parking_piscine,0
t_cano1,"Canot",47.23614,6.0160275,0,st_canot,1
t_cano2,"Canot",47.23596,6.0158696,0,st_canot,1
t_psan2,"Maison des Familles",47.22591,5.9599614,0,st_maison_des_familles,1
KENNEDY2,"Kennedy",47.238766,5.988705,0,st_kennedy,1
t_psan1,"Maison des Familles",47.22597,5.960198,0,st_maison_des_familles,1
KENNEDY1,"Kennedy",47.2386,5.988867,0,st_kennedy,1
CHAILu02,"Chailluz",47.277657,6.028318,0,st_chailluz,0
HMAI1,"8 Mai",47.234844,6.018151,0,st_8_mai,1
HMAI2,"8 Mai",47.23482,6.018301,0,st_8_mai,0
PECLET1,"Péclet",47.235023,6.030317,0,st_peclet,0
ORCHAMPA,"Orchamps",47.26331,6.04578,0,st_orchamps,0
ORCHAMPB,"Orchamps",47.26331,6.04578,0,st_orchamps,0
TREY2,"Trey",47.256638,6.022146,0,st_trey,0
DOLTO01,"Dolto",47.2231,5.960158,0,st_dolto,0
DOLTO02,"Dolto",47.223076,5.960305,0,st_dolto,0
OUDET1,"Oudet",47.23724,6.014594,0,st_oudet,1
CHAMPET2,"École-Valentin - Champêtre",47.274315,6.002917,0,st_ecolevalentin__champetre,1
MORRE20,"Morre - Belle Vue",47.215107,6.057115,0,st_morre__belle_vue,0
MORRE21,"Morre - Belle Vue",47.215107,6.057115,0,st_morre__belle_vue,0
MORRE22,"Morre - Grange Fauconnière",47.195786,6.108007,0,st_morre__grange_fauconniere,0
CHAPEL01,"Chapelle",47.218147,6.045991,0,st_chapelle,0
CHAMPET1,"École-Valentin - Champêtre",47.274097,6.003043,0,st_ecolevalentin__champetre,1
CHAPEL02,"Chapelle",47.218147,6.045991,0,st_chapelle,0
VALLIERE,"Vallières",47.216805,5.981751,0,st_vallieres,0
ATEMUNI4,"Ateliers Municipaux",47.235645,5.9949646,0,st_ateliers_municipaux,1
ATEMUNI3,"Ateliers Municipaux",47.23571,5.995441,0,st_ateliers_municipaux,0
ROSEMON2,"Rosemont",47.225025,5.9952416,0,st_rosemont,0
WYRSCH2,"Wyrsch",47.256577,6.018504,0,st_wyrsch,0
WYRSCH1,"Wyrsch",47.256428,6.018354,0,st_wyrsch,0
ORCHAMP1,"Orchamps",47.263462,6.045672,0,st_orchamps,0
FOURIER1,"Fourier",47.251152,6.030501,0,st_fourier,0
ORCHAMP9,"Orchamps",47.262966,6.044861,0,st_orchamps,0
MORRE10,"Morre - Prévitali",47.22077,6.063894,0,st_morre__previtali,0
MORRE11,"Morre - La Glacière",47.22555,6.075171,0,st_morre__la_glaciere,0
GRANVEL1,"Granvelle",47.23528,6.02544,0,st_granvelle,1
MORRE12,"Morre - La Glacière",47.225765,6.075624,0,st_morre__la_glaciere,0
GRANVEL2,"Granvelle",47.23532,6.0254,0,st_granvelle,1
MORRE13,"Morre - Echangeur",47.223953,6.063066,0,st_morre__echangeur,0
MORRE14,"Morre - Le Pautey",47.222683,6.069339,0,st_morre__le_pautey,0
MORRE15,"Morre - Le Pautey",47.222748,6.069494,0,st_morre__le_pautey,0
PLATINE1,"École-Valentin - Platine",47.27527,5.999388,0,st_ecolevalentin__platine,1
PLATINE2,"École-Valentin - Platine",47.27522,5.999143,0,st_ecolevalentin__platine,1
VORGES06,"Vorges-les-Pins - Boulangerie",47.16206,5.934888,0,st_vorgeslespins__boulangerie,0
VORGES05,"Vorges-les-Pins - Boulangerie",47.16207,5.934998,0,st_vorgeslespins__boulangerie,0
JEANCOR1,"Jean Cornet",47.23638,6.028897,0,st_jean_cornet,1
MIALOT01,"Mialottes",47.219147,6.041912,0,st_mialottes,0
MIALOT02,"Mialottes",47.219147,6.041912,0,st_mialottes,0
UFRSCIE1,"UFR Sciences",47.24444,5.986718,0,st_ufr_sciences,0
UFRSCIE2,"UFR Sciences",47.24444,5.986248,0,st_ufr_sciences,0
VAITE2,"Les Vaîtes",47.25217,6.04436,0,st_les_vaites,0
MICROPOL,"Micropolis",47.221397,5.978717,0,st_micropolis,0
FRANOI19,"Franois - Combe Perrot",47.230152,5.939096,0,st_franois__combe_perrot,0
t_ufr1,"UFR Santé",47.22361,5.9559402,0,st_ufr_sante,1
FRANOI12,"Franois - Gare SNCF",47.227913,5.937857,0,st_franois__gare_sncf,1
CORVEE1,"Corvée",47.25942,6.04388,0,st_corvee,1
CORVEE2,"Corvée",47.25932,6.043778,0,st_corvee,1
t_ufr2,"UFR Santé",47.22361,5.9558635,0,st_ufr_sante,1
NBRUAND2,"Nicolas Bruand",47.25145,6.025613,0,st_nicolas_bruand,0
ESPAVAL2,"École-Valentin - Espace Valentin",47.286167,5.99285,0,st_ecolevalentin__espace_valentin,1
AUXUGAR,"Les Auxons - Gare Besançon Franche-Comté TGV",47.307457,5.953852,0,st_les_auxons__gare_besancon_franchecomte_tgv,0
MERVIE02,"Mérey-Vieilley - RD 14",47.33613,6.061304,0,st_mereyvieilley__rd_14,1
MERVIE01,"Mérey-Vieilley - RD 14",47.336216,6.060981,0,st_mereyvieilley__rd_14,1
t_brula1,"Brulard",47.228474,6.0059133,0,st_brulard,1
t_brula2,"Brulard",47.228462,6.005575,0,st_brulard,1
PMCURIE1,"Pierre et Marie Curie",47.260983,6.045074,0,st_pierre_et_marie_curie,0
VALERY1,"Valéry",47.21482,5.961857,0,st_valery,0
FRANOI05,"Franois - Z.I.",47.229664,5.932308,0,st_franois__zi,0
PMCURIE2,"Pierre et Marie Curie",47.2608,6.044907,0,st_pierre_et_marie_curie,0
FRANOI06,"Franois - Z.I.",47.22968,5.931229,0,st_franois__zi,0
FRANOI07,"Franois - Mairie",47.234764,5.924465,0,st_franois__mairie,0
FRANOI08,"Franois - Mairie",47.234776,5.924518,0,st_franois__mairie,0
PIEMONT1,"Piémont",47.222847,5.965639,0,st_piemont,1
VORGES03,"Vorges-les-Pins - Ecole",47.16077,5.929302,0,st_vorgeslespins__ecole,0
FRANOI01,"Franois - La Félie",47.228905,5.919299,0,st_franois__la_felie,0
TREY1,"Trey",47.256554,6.022026,0,st_trey,0
ESPAVAL1,"École-Valentin - Espace Valentin",47.28684,5.992957,0,st_ecolevalentin__espace_valentin,1
VORGES02,"Vorges-les-Pins - Riette",47.160244,5.931036,0,st_vorgeslespins__riette,0
FRANOI02,"Franois - La Félie",47.22874,5.918931,0,st_franois__la_felie,0
VORGES01,"Vorges-les-Pins - Village",47.157944,5.928314,0,st_vorgeslespins__village,1
FRANOI03,"Franois - La Vierge",47.22921,5.925164,0,st_franois__la_vierge,0
PIEMONT2,"Piémont",47.222805,5.965665,0,st_piemont,1
FRANOI04,"Franois - La Vierge",47.229286,5.9253,0,st_franois__la_vierge,0
CHAFFAN1,"Chaffanjon",47.2461,6.047886,0,st_chaffanjon,0
SEILER1,"Seiler",47.258343,6.022867,0,st_seiler,0
CHEVRO01,"Chevroz - Rue des Fontaines",47.333015,5.998255,0,st_chevroz__rue_des_fontaines,0
MSPORT1,"Maison des Sports",47.242516,6.003827,0,st_maison_des_sports,0
CHEVRO02,"Chevroz - Rue des Fontaines",47.333008,5.998238,0,st_chevroz__rue_des_fontaines,0
MSPORT2,"Maison des Sports",47.242516,6.003827,0,st_maison_des_sports,0
BOISPAU1,"Bois St Paul",47.251343,6.057936,0,st_bois_st_paul,0
BOISPAU2,"Bois St Paul",47.251442,6.058323,0,st_bois_st_paul,0
t_brule1,"Brûlefoin",47.249886,6.042456,0,st_brulefoin,1
t_brule2,"Brûlefoin",47.249786,6.0421796,0,st_brulefoin,1
PLGUYON2,"Place Guyon",47.229008,6.042345,0,st_place_guyon,0
PLGUYON1,"Place Guyon",47.22892,6.042444,0,st_place_guyon,0
LACHEVIL,"La Chevillotte - La chevillotte-La grange du bosquet",47.234375,6.143183,0,st_la_chevillotte__la_chevillottela_grange_du_bosquet,0
COURTIL2,"Courtils",47.265015,6.046069,0,st_courtils,0
MARNIERE,"Chalezeule - Marnière",47.26238,6.059754,0,st_chalezeule__marniere,0
t_poly2,"Polygone",47.229855,6.0105643,0,st_polygone,1
t_poly1,"Polygone",47.22993,6.010826,0,st_polygone,1
VOIRIN2,"Voirin",47.242275,6.013741,0,st_voirin,1
VOIRIN1,"Voirin",47.242233,6.0138493,0,st_voirin,1
SEILER2,"Seiler",47.25833,6.022922,0,st_seiler,0
CANALTA1,"Canal Tarragnoz",47.22994,6.030121,0,st_canal_tarragnoz,0
CANALTA2,"Canal Tarragnoz",47.230053,6.029898,0,st_canal_tarragnoz,0
GENEUI05,"Geneuille - Poste",47.32343,5.970633,0,st_geneuille__poste,1
CARRIER2,"Carrière",47.263958,6.027482,0,st_carriere,0
BRULEFO2,"Brûlefoin",47.24959,6.042134,0,st_brulefoin,0
VILLAR02,"Villars-Saint-Georges - Ecole",47.126167,5.826397,0,st_villarssaintgeorges__ecole,0
BRULEFO1,"Brûlefoin",47.249584,6.042246,0,st_brulefoin,0
CHURCHI2,"Churchill",47.25109,6.009383,0,st_churchill,0
CARRIER1,"Carrière",47.263653,6.027452,0,st_carriere,0
VILLAR01,"Villars-Saint-Georges - Ecole",47.12561,5.828158,0,st_villarssaintgeorges__ecole,0
t_allen1,"Allende",47.21972,5.9736724,0,st_allende,1
CHURCHI1,"Churchill",47.251026,6.009854,0,st_churchill,1
t_allen2,"Allende",47.219864,5.973468,0,st_allende,1
SERRE06,"Serre-les-Sapins - La Faye",47.24616,5.932452,0,st_serrelessapins__la_faye,0
SERRE05,"Serre-les-Sapins - La Faye",47.24633,5.932579,0,st_serrelessapins__la_faye,0
SERRE08,"Serre-les-Sapins - Ecole",47.242863,5.932967,0,st_serrelessapins__ecole,0
SERRE07,"Serre-les-Sapins - Ecole",47.242573,5.932718,0,st_serrelessapins__ecole,0
SERRE02,"Serre-les-Sapins - La Machotte",47.24056,5.927027,0,st_serrelessapins__la_machotte,1
SERRE01,"Serre-les-Sapins - La Machotte",47.24078,5.926953,0,st_serrelessapins__la_machotte,0
SERRE04,"Serre-les-Sapins - Gare",47.24013,5.933098,0,st_serrelessapins__gare,0
FRTMTB2,"Fort des Montboucons",47.25667,5.986464,0,st_fort_des_montboucons,0
SERRE03,"Serre-les-Sapins - Gare",47.24023,5.93308,0,st_serrelessapins__gare,0
FRTMTB1,"Fort des Montboucons",47.25667,5.986464,0,st_fort_des_montboucons,1
REPUBL2,"République",47.24107,6.026592,0,st_republique,0
GENEUI09,"Geneuille - ZA Vauvereille",47.31679,5.97632,0,st_geneuille__za_vauvereille,0
GENEUI08,"Geneuille - Maupommet",47.32005,5.962362,0,st_geneuille__maupommet,0
GENEUI07,"Geneuille - Maupommet",47.32005,5.962362,0,st_geneuille__maupommet,0
DELEST1,"Delestraint",47.260883,5.991475,0,st_delestraint,0
JOURNAU2,"Journaux",47.219437,6.014093,0,st_journaux,0
GENEUI12,"Geneuille - Salines",47.31072,5.98785,0,st_geneuille__salines,0
JOURNAU1,"Journaux",47.219395,6.014387,0,st_journaux,0
GENEUI11,"Geneuille - Salines",47.31072,5.98785,0,st_geneuille__salines,0
GENEUI10,"Geneuille - ZA Vauvereille",47.31679,5.97632,0,st_geneuille__za_vauvereille,0
CLAIRSO3,"Clairs Soleils (Collège PU)",47.253242,6.059407,0,st_clairs_soleils_college_pu,0
MONTJOU2,"Montjoux",47.249275,6.015175,0,st_montjoux,0
CLAIRSO1,"Clairs Soleils",47.24992,6.058834,0,st_clairs_soleils,1
MONTJOU1,"Montjoux",47.249275,6.015175,0,st_montjoux,0
HEITZ2,"Heitz",47.244274,6.043858,0,st_heitz,0
CLAIRSO2,"Clairs Soleils",47.25037,6.059256,0,st_clairs_soleils,1
MORRE05,"Morre - Roc Clair",47.22868,6.06937,0,st_morre__roc_clair,0
BIBLIOU2,"Bibliothèques Univ.",47.246677,5.987565,0,st_bibliotheques_univ,0
MORRE06,"Morre - Roc Clair",47.22861,6.0691667,0,st_morre__roc_clair,0
MORRE07,"Morre - Charade",47.22946,6.067339,0,st_morre__charade,0
SMAURIC1,"St Maurice",47.235756,6.027452,0,st_st_maurice,0
MORRE08,"Morre - Charade",47.229443,6.067222,0,st_morre__charade,0
MORRE09,"Morre - Prévitali",47.221157,6.064018,0,st_morre__previtali,0
BIBLIOU1,"Bibliothèques Univ.",47.246822,5.987577,0,st_bibliotheques_univ,0
JACOBIN2,"Jacobins",47.234764,6.032582,0,st_jacobins,0
AMITIE1,"Amitié",47.23254,5.983451,0,st_amitie,1
t_fben2,"Fort Benoît",47.262093,6.0504327,0,st_fort_benoit,1
SERRE13,"Serre-les-Sapins - Vorin",47.2383,5.932554,0,st_serrelessapins__vorin,0
PALEI,"Palente Espace Industriel",47.265003,6.051061,0,st_palente_espace_industriel,1
SERRE12,"Serre-les-Sapins - Horizon",47.24874,5.937051,0,st_serrelessapins__horizon,0
t_fben1,"Fort Benoît",47.262066,6.050709,0,st_fort_benoit,1
SERRE14,"Serre-les-Sapins - Vorin",47.238266,5.932516,0,st_serrelessapins__vorin,0
MORRE01,"Morre - Trou aux Loups",47.22463,6.075756,0,st_morre__trou_aux_loups,0
MORRE02,"Morre - Echangeur",47.223934,6.063324,0,st_morre__echangeur,0
MIRABEA2,"Mirabeau",47.24599,6.052923,0,st_mirabeau,0
MORRE03,"Morre - Mairie",47.226353,6.065337,0,st_morre__mairie,1
SERRE11,"Serre-les-Sapins - Horizon",47.24879,5.937106,0,st_serrelessapins__horizon,0
MIRABEA1,"Mirabeau",47.245792,6.051734,0,st_mirabeau,0
MORRE04,"Morre - Mairie",47.226112,6.0652776,0,st_morre__mairie,1
VOLTAIR1,"Voltaire",47.221622,5.960859,0,st_voltaire,1
VOLTAIR2,"Voltaire",47.221916,5.962137,0,st_voltaire,1
VOLTAIR3,"Voltaire (Collège PU)",47.221565,5.960426,0,st_voltaire_college_pu,0
PAPIN4,"Papin",47.243263,5.986128,0,st_papin,0
PAPIN3,"Papin",47.243233,5.986145,0,st_papin,0
MARMIER1,"Marmier",47.239433,6.005342,0,st_marmier,1
PARCURB1,"Parc Urbain",47.21496,5.97531,0,st_parc_urbain,1
CHAMARS1,"Chamars",47.233418,6.020035,0,st_chamars,1
MARMIER2,"Marmier",47.23976,6.00522,0,st_marmier,0
PARCURB2,"Parc Urbain",47.21498,5.97524,0,st_parc_urbain,1
CHAMARS2,"Chamars",47.233383,6.019651,0,st_chamars,1
SAPINS1,"Sapins",47.23447,5.989477,0,st_sapins,0
SAPINS2,"Sapins",47.23478,5.989557,0,st_sapins,0
ROSETF01,"Roset-Fluans - Fluans",47.16509,5.841666,0,st_rosetfluans__fluans,0
ROSETF02,"Roset-Fluans - Fluans",47.16509,5.841666,0,st_rosetfluans__fluans,0
PONBEUR2,"Pont de Beure",47.210873,5.996134,0,st_pont_de_beure,0
PONBEUR1,"Pont de Beure",47.210594,5.995837,0,st_pont_de_beure,0
ROSETF03,"Roset-Fluans - Mairie",47.163124,5.826711,0,st_rosetfluans__mairie,0
ROSETF04,"Roset-Fluans - Mairie",47.163124,5.826711,0,st_rosetfluans__mairie,0
ROSETF09,"Roset-Fluans - La Veloupe",47.1543,5.84954,0,st_rosetfluans__la_veloupe,0
ROSETF07,"Roset-Fluans - Grottes d'Osselle",47.13848,5.83692,0,st_rosetfluans__grottes_dosselle,0
ROSETF08,"Roset-Fluans - Grottes d'Osselle",47.13848,5.83692,0,st_rosetfluans__grottes_dosselle,0
RANCEN01,"Rancenay - Village",47.18744,5.949446,0,st_rancenay__village,1
RANCEN03,"Rancenay - Carrefour",47.190525,5.947508,0,st_rancenay__carrefour,0
RANCEN04,"Rancenay - Carrefour",47.190456,5.947519,0,st_rancenay__carrefour,0
LAMALA01,"Montfaucon - Aqueduc",47.24188,6.067077,0,st_montfaucon__aqueduc,0
HOPMINJ4,"Hôpital J. Minjoz",47.226734,5.9637613,0,st_hopital_j_minjoz,0
BOIS2,"Bois",47.21387,5.945889,0,st_bois,0
BOIS1,"Bois",47.21387,5.945889,0,st_bois,0
ROSETF12,"Roset-Fluans - Bas des Hous",47.15374,5.824382,0,st_rosetfluans__bas_des_hous,0
ROSETF10,"Roset-Fluans - La Veloupe",47.1543,5.84954,0,st_rosetfluans__la_veloupe,0
THISE09,"Thise - Tilleuls",47.280396,6.068631,0,st_thise__tilleuls,0
ROSETF11,"Roset-Fluans - Bas des Hous",47.15374,5.824382,0,st_rosetfluans__bas_des_hous,0
t_epo1,"Epoisses",47.22235,5.972772,0,st_epoisses,1
t_epo2,"Epoisses",47.22248,5.972474,0,st_epoisses,1
METIN1,"Métin",47.246235,6.00878,0,st_metin,0
NOIRON01,"Noironte - Place",47.272312,5.876907,0,st_noironte__place,1
METIN2,"Métin",47.246716,6.008142,0,st_metin,0
FORCH01,"Fort de Chaudanne",47.225136,6.020623,0,st_fort_de_chaudanne,0
LAVOISI1,"Lavoisier",47.235012,5.984728,0,st_lavoisier,1
CHATEAU1,"Châteaufarine",47.215794,5.949156,0,st_chateaufarine,1
LAVOISI2,"Lavoisier",47.235043,5.98457,0,st_lavoisier,0
SAONE04,"Saône - Hameau",47.226624,6.122781,0,st_saone__hameau,0
SAONE07,"Saône - Maternelle",47.221676,6.114082,0,st_saone__maternelle,0
POUFRA05,"Pouilley-Français - libération",47.20522,5.84658,0,st_pouilleyfrancais__liberation,0
SAONE06,"Saône - Loupiots",47.224792,6.118113,0,st_saone__loupiots,0
POUFRA06,"Pouilley-Français - libération",47.20522,5.84658,0,st_pouilleyfrancais__liberation,0
KOSMA2,"Kosma",47.236435,5.965703,0,st_kosma,0
SAONE01,"Saône - Creux sous Roche",47.21434,6.108039,0,st_saone__creux_sous_roche,0
POUFRA03,"Pouilley-Français - Eglise",47.206432,5.845713,0,st_pouilleyfrancais__eglise,1
KOSMA1,"Kosma",47.236305,5.96637,0,st_kosma,0
POUFRA04,"Pouilley-Français - Eglise",47.206604,5.845542,0,st_pouilleyfrancais__eglise,1
SAONE03,"Saône - Hameau",47.22651,6.122241,0,st_saone__hameau,0
FORCH02,"Fort de chaudanne",47.225136,6.020623,0,st_fort_de_chaudanne,0
POUFRA01,"Pouilley-Français - Mairie",47.208305,5.843457,0,st_pouilleyfrancais__mairie,0
SAONE02,"Saône - Creux sous Roche",47.214024,6.107842,0,st_saone__creux_sous_roche,0
ROTONDE1,"Rotonde",47.247818,6.027254,0,st_rotonde,0
THISE01,"Thise - Longues Raies",47.26858,6.0607,0,st_thise__longues_raies,0
THISE08,"Thise - Petit Parc",47.275764,6.061793,0,st_thise__petit_parc,0
THISE07,"Thise - Petit Parc",47.27567,6.061695,0,st_thise__petit_parc,0
THISE06,"Thise - Egraffeux",47.272583,6.05828,0,st_thise__egraffeux,0
THISE05,"Thise - Egraffeux",47.272537,6.058098,0,st_thise__egraffeux,0
t_marn2,"Chalezeule - Marnières",47.263397,6.0553303,0,st_chalezeule__marnieres,1
t_marn1,"Chalezeule - Marnières",47.26338,6.055775,0,st_chalezeule__marnieres,1
CENTCOM3,"École-Valentin - Centre Commercial",47.281887,5.992286,0,st_ecolevalentin__centre_commercial,1
SAONE09,"Saône - Planchettes",47.21769,6.111203,0,st_saone__planchettes,0
CENTCOM4,"École-Valentin - Centre Commercial",47.281998,5.992452,0,st_ecolevalentin__centre_commercial,1
SAONE08,"Saône - Maternelle",47.22204,6.114508,0,st_saone__maternelle,0
CHEPLAN1,"Chemin des Planches",47.26713,6.037749,0,st_chemin_des_planches,0
CHEPLAN2,"Chemin des Planches",47.267063,6.037428,0,st_chemin_des_planches,0
SAONE15,"Saône - Collège de Saône",47.226616,6.113843,0,st_saone__college_de_saone,0
LAVEZE05,"La Vèze - Ecole",47.213673,6.066422,0,st_la_veze__ecole,0
DIDEROT2,"Diderot",47.242455,6.033615,0,st_diderot,0
SAONE18,"Saône - Etoile",47.226524,6.124279,0,st_saone__etoile,0
LAVEZE08,"La Vèze - Le Pontot",47.205715,6.070983,0,st_la_veze__le_pontot,0
DIDEROT1,"Diderot",47.24245,6.033733,0,st_diderot,0
STMARTI1,"St Martin",47.243668,5.99554,0,st_st_martin,1
COLCLS02,"Clémetigney",47.251892,6.059436,0,st_clemetigney,0
LAVEZE07,"La Vèze - Le Pontot",47.205715,6.070983,0,st_la_veze__le_pontot,0
COLCLS01,"Clémetigney",47.25198,6.060431,0,st_clemetigney,0
SAONE12,"Saône - Gare",47.20959,6.10126,0,st_saone__gare,0
LAVEZE02,"La Vèze - Ecole",47.213696,6.066458,0,st_la_veze__ecole,1
BEAUART2,"Beaux Arts",47.243294,5.987499,0,st_beaux_arts,0
THISE10,"Thise - Tilleuls",47.28086,6.06923,0,st_thise__tilleuls,0
LAVEZE01,"La Vèze - Ecole",47.213654,6.06666,0,st_la_veze__ecole,1
SAONE11,"Saône - Gare",47.20889,6.101389,0,st_saone__gare,0
BEAUART1,"Beaux Arts",47.243366,5.98809,0,st_beaux_arts,0
LAVEZE04,"La Vèze - Lavoir",47.210835,6.0677776,0,st_la_veze__lavoir,0
LAVEZE03,"La Vèze - Lavoir",47.210514,6.067934,0,st_la_veze__lavoir,0
SAONE13,"Saône - Marais",47.228172,6.113626,0,st_saone__marais,0
THISE15,"Thise - Acacias",47.28642,6.07057,0,st_thise__acacias,0
SAONE10,"Saône - Planchettes",47.2175,6.110972,0,st_saone__planchettes,0
THISE13,"Thise - Charmilles",47.28673,6.07259,0,st_thise__charmilles,0
THISE19,"Thise - Centre Bourg",47.28271,6.077749,0,st_thise__centre_bourg,0
THISE18,"Thise - Jean d'Abbans",47.28491,6.070858,0,st_thise__jean_dabbans,0
LAVEZE09,"La Vèze - Granges St Antoine",47.20352,6.091422,0,st_la_veze__granges_st_antoine,0
THISE17,"Thise - Jean d'Abbans",47.28484,6.070849,0,st_thise__jean_dabbans,0
t_chal,"Chalezeule - Chalezeule",47.261314,6.0609517,0,st_chalezeule__chalezeule,1
t_malc2,"Malcombe",47.222588,5.9824343,0,st_malcombe,1
FORTBRE2,"Fort de Bregille",47.239983,6.041283,0,st_fort_de_bregille,0
t_pmic1,"Parc Micaud",47.24289,6.0299096,0,st_parc_micaud,1
t_malc1,"Malcombe",47.22261,5.9826303,0,st_malcombe,1
VAUX06,"Chemaudin et Vaux - Lavoir",47.236183,5.882937,0,st_chemaudin_et_vaux__lavoir,0
VAUX07,"Chemaudin et Vaux - Zone de l'Echange",47.233982,5.899226,0,st_chemaudin_et_vaux__zone_de_lechange,0
LAVEZE10,"La Vèze - Granges St Antoine",47.20352,6.091422,0,st_la_veze__granges_st_antoine,0
VAUX02,"Chemaudin et Vaux - Château",47.23594,5.886077,0,st_chemaudin_et_vaux__chateau,1
FORTBRE1,"Fort de Bregille",47.240208,6.041531,0,st_fort_de_bregille,0
VAUX03,"Chemaudin et Vaux - Giratoire",47.23268,5.885671,0,st_chemaudin_et_vaux__giratoire,0
SAONE19,"Saône - Carrefour Fourney",47.220284,6.124545,0,st_saone__carrefour_fourney,0
VAUX04,"Chemaudin et Vaux - Giratoire",47.233086,5.886201,0,st_chemaudin_et_vaux__giratoire,0
VAUX05,"Chemaudin et Vaux - Lavoir",47.236103,5.882833,0,st_chemaudin_et_vaux__lavoir,0
VAUX01,"Chemaudin et Vaux - Château",47.235695,5.88601,0,st_chemaudin_et_vaux__chateau,1
CHOPIN4,"Chopin",47.262215,6.040486,0,st_chopin,1
THISE22,"Thise - Horizon",47.28141,6.082834,0,st_thise__horizon,0
SAONE22,"Saône - Loupiots",47.22486,6.118364,0,st_saone__loupiots,0
THISE21,"Thise - Horizon",47.281387,6.082222,0,st_thise__horizon,0
LAVEZE12,"La Vèze - Grande Combe",47.185513,6.076341,0,st_la_veze__grande_combe,0
t_micro1,"Micropolis",47.22067,5.97841,0,st_micropolis,1
THISE20,"Thise - Centre Bourg",47.282726,6.077588,0,st_thise__centre_bourg,1
t_micro2,"Micropolis",47.22066,5.9781675,0,st_micropolis,1
THISE26,"Thise - Vallon",47.28023,6.07239,0,st_thise__vallon,0
THISE25,"Thise - Vallon",47.280224,6.072425,0,st_thise__vallon,0
CHOPIN2,"Chopin",47.26269,6.040741,0,st_chopin,1
THISE24,"Thise - Mairie",47.28373,6.080073,0,st_thise__mairie,0
CHOPIN1,"Chopin",47.26223,6.039651,0,st_chopin,1
THISE23,"Thise - Mairie",47.283764,6.080031,0,st_thise__mairie,0
SAONE20,"Saône - Carrefour Fourney",47.220284,6.124545,0,st_saone__carrefour_fourney,0
t_pmic2,"Parc Micaud",47.24295,6.029917,0,st_parc_micaud,1
PIMALLA1,"Piscine Mallarmé",47.24494,5.99844,0,st_piscine_mallarme,0
THISE29,"Thise - Route de Besançon",47.277283,6.068068,0,st_thise__route_de_besancon,0
PELOUSE2,"Pelouse",47.23304,5.993867,0,st_pelouse,1
CHVANS01,"Champvans-les-Moulins - Centre",47.254395,5.914866,0,st_champvanslesmoulins__centre,1
THISE28,"Thise - Vallières",47.278965,6.071049,0,st_thise__vallieres,0
PELOUSE1,"Pelouse",47.233566,5.993962,0,st_pelouse,1
THISE27,"Thise - Vallières",47.278942,6.070965,0,st_thise__vallieres,0
PIMALLA2,"Piscine Mallarmé",47.24483,5.99801,0,st_piscine_mallarme,0
M MIEL4,"Maison du Miel",47.26167,6.01461,0,st_maison_du_miel,0
M MIEL3,"Maison du Miel",47.26176,6.01476,0,st_maison_du_miel,0
SCL3,"St Claude",47.258938,6.009645,0,st_st_claude,1
VICHUGO1,"Victor Hugo",47.234978,6.029688,0,st_victor_hugo,1
LANGUED1,"Languedoc",47.218864,5.965041,0,st_languedoc,1
LANGUED2,"Languedoc",47.218678,5.964887,0,st_languedoc,1
CHNODIER,"Nodier",47.233276,6.022916,0,st_nodier,0
LEVER1,"Leverrier",47.263176,5.994057,0,st_leverrier,0
RIVOTTE,"Rivotte",47.23035,6.037004,0,st_rivotte,1
LEVER2,"Leverrier",47.263176,5.994057,0,st_leverrier,0
MICROPO3,"Micropolis",47.220398,5.9773083,0,st_micropolis,0
MICROPO1,"Micropolis",47.220387,5.977916,0,st_micropolis,1
MICROPO2,"Micropolis",47.22134,5.978531,0,st_micropolis,1
HUITSEP1,"8 Septembre",47.2378,6.024275,0,st_8_septembre,1
BEAUQUI1,"Beauquier",47.25299,6.015292,0,st_beauquier,0
FRANOI20,"Franois - Combe Perrot",47.23024,5.93918,0,st_franois__combe_perrot,0
BEAUQUI2,"Beauquier",47.252857,6.014761,0,st_beauquier,1
DEVILLE2,"Deville",47.24773,6.006003,0,st_deville,0
DEVILLE1,"Deville",47.247513,6.006425,0,st_deville,0
VAIGD05,"Vaire - Arcier",47.27051,6.121641,0,st_vaire__arcier,0
VAIGD06,"Vaire - Arcier",47.270573,6.121709,0,st_vaire__arcier,0
BLUM1,"Blum",47.25791,6.023157,0,st_blum,0
GACOGNE2,"Cité des Gacognes",47.228252,6.043988,0,st_cite_des_gacognes,0
GACOGNE1,"Cité des Gacognes",47.22825,6.043898,0,st_cite_des_gacognes,0
PAVIE2,"Pavie",47.220573,5.961742,0,st_pavie,0
PAVIE1,"Pavie",47.22024,5.962015,0,st_pavie,1
MICROPL1,"Micropolis",47.22138,5.97846,0,st_micropolis,0
CHAMCITA,"Chamars",47.23371,6.01982,0,st_chamars,1
BLUM2,"Blum",47.258327,6.023718,0,st_blum,1
LECLERC1,"Leclerc",47.242493,6.014646,0,st_leclerc,1
CHARIGN1,"Charigney",47.261307,6.048596,0,st_charigney,0
CHARIGN2,"Charigney",47.26101,6.048107,0,st_charigney,0
CONCORD2,"Concorde",47.229233,5.989507,0,st_concorde,1
CONCORD1,"Concorde",47.229027,5.988835,0,st_concorde,1
PATINOI2,"Patinoire / Piscine",47.213833,5.968735,0,st_patinoire__piscine,0
LAMALA05,"Montfaucon - Ferme",47.24644,6.070699,0,st_montfaucon__ferme,0
LAMALA04,"Montfaucon - Traine Bâton",47.23363,6.061374,0,st_montfaucon__traine_baton,0
SCHWEIT4,"Schweitzer",47.256634,6.043764,0,st_schweitzer,0
PBT1,"Paul Bert",47.255077,6.028113,0,st_paul_bert,1
LAMALA03,"Montfaucon - Traine Bâton",47.23348,6.061204,0,st_montfaucon__traine_baton,0
LECLERC4,"Leclerc",47.243008,6.014347,0,st_leclerc,1
LAMALA02,"Montfaucon - Aqueduc",47.241955,6.067212,0,st_montfaucon__aqueduc,0
LAMALA08,"Montfaucon - Ruisseau",47.24961,6.075683,0,st_montfaucon__ruisseau,0
LAMALA07,"Montfaucon - Ruisseau",47.249577,6.075566,0,st_montfaucon__ruisseau,0
LAMALA06,"Montfaucon - Ferme",47.246372,6.070656,0,st_montfaucon__ferme,0
MAROT2,"Marot",47.21816,5.957604,0,st_marot,1
MAROT1,"Marot",47.21816,5.957554,0,st_marot,1
VAIGD01,"Vaire - Village",47.28291,6.153072,0,st_vaire__village,1
PBT2,"Paul Bert",47.254982,6.028084,0,st_paul_bert,1
VAIGD02,"Vaire - Village",47.282776,6.1530557,0,st_vaire__village,1
VAIGD03,"Vaire - Corcelle",47.279316,6.131843,0,st_vaire__corcelle,0
VAIGD04,"Vaire - Corcelle",47.279316,6.131893,0,st_vaire__corcelle,0
CHARDON1,"Chardonnet",47.23055,6.040222,0,st_chardonnet,0
CHARDON2,"Chardonnet",47.231052,6.039756,0,st_chardonnet,0
PATINOI1,"Patinoire / Piscine",47.214172,5.967888,0,st_patinoire__piscine,1
st_cul_des_pres,"Cul des Prés",47.26979064941406,6.042990684509277,1,,0
st_trepillot,"Trépillot",47.2413330078125,6.0069780349731445,1,,0
st_jacquard,"Jacquard",47.23835754394531,5.994083404541016,1,,0
st_chaille,"Chaille",47.237571716308594,5.976253509521484,1,,0
st_montfaucon__institut_rural,"Montfaucon - Institut Rural",47.225704193115234,6.078178882598877,1,,0
st_la_chevillotte__mairie,"La Chevillotte - Mairie",47.21981430053711,6.1655778884887695,1,,1
st_saintvit__bois_murie,"Saint-Vit - Bois Murie",47.20270919799805,5.8219828605651855,1,,0
st_les_auxons__les_vignes,"Les Auxons - Les Vignes",47.301734924316406,5.974146366119385,1,,0
st_osselleroutelle__centre,"Osselle-Routelle - Centre",47.167449951171875,5.850246429443359,1,,1
st_chemin_de_velotte,"Chemin de Velotte",47.220130920410156,6.016352653503418,1,,0
st_chemin_de_palente,"Chemin de Palente",47.268890380859375,6.047388553619385,1,,0
st_point_du_jour,"Point du Jour",47.26620864868164,6.02054500579834,1,,0
st_geneuille__za_vauvereille,"Geneuille - ZA Vauvereille",47.31679153442383,5.976319789886475,1,,0
st_republique,"République",47.240970611572266,6.026937484741211,1,,0
st_lanchy,"Lanchy",47.2586555480957,6.028680801391602,1,,0
st_vaire__mairie,"Vaire - Mairie",47.287078857421875,6.147047519683838,1,,1
st_ufr_sciences,"UFR Sciences",47.24443817138672,5.986483097076416,1,,0
st_mamirolle__place,"Mamirolle - Place",47.19721984863281,6.160582065582275,1,,0
st_thise__bruyeres,"Thise - Bruyères",47.27161407470703,6.0619330406188965,1,,0
st_geneuille__salines,"Geneuille - Salines",47.31071853637695,5.987850189208984,1,,0
st_chaleze__village,"Chalèze - Village",47.26829147338867,6.087331771850586,1,,0
st_saintvit__les_vallons,"Saint-Vit - Les Vallons",47.18518829345703,5.819940567016602,1,,1
st_les_vaites,"Les Vaîtes",47.25284957885742,6.043514728546143,1,,0
st_voltaire,"Voltaire",47.221771240234375,5.961498260498047,1,,1
st_casamene,"Casamène",47.21929168701172,6.026976108551025,1,,0
st_ecolevalentin__ruisseau,"École-Valentin - Ruisseau",47.2684326171875,5.98020076751709,1,,0
st_pirey__coteau_st_martin,"Pirey - Coteau St Martin",47.25950241088867,5.964148044586182,1,,0
st_trey,"Trey",47.256595611572266,6.022086143493652,1,,0
st_chemaudin_et_vaux__lavoir,"Chemaudin et Vaux - Lavoir",47.23614501953125,5.882884979248047,1,,0
st_geneuille__poste,"Geneuille - Poste",47.323429107666016,5.970633029937744,1,,1
st_rivotte,"Rivotte",47.2303466796875,6.036816120147705,1,,0
st_morre__la_glaciere,"Morre - La Glacière",47.22565841674805,6.075397491455078,1,,0
st_demangel,"Demangel",47.24448013305664,6.011491775512695,1,,0
st_torpes__eglise,"Torpes - Eglise",47.16964340209961,5.891360282897949,1,,1
st_st_claude_college_camus,"St Claude (Collège Camus)",47.258705139160156,6.009937763214111,1,,0
st_grandfontaine__la_belle_etoile,"Grandfontaine - La Belle Etoile",47.21110153198242,5.933769702911377,1,,0
st_usports,"U-Sports",47.25220489501953,5.990300178527832,1,,1
st_college_camus,"Collège Camus",47.25893020629883,6.010323524475098,1,,1
st_cassin,"Cassin",47.21929168701172,5.969932556152344,1,,0
st_bacchus,"Bacchus",47.24250411987305,6.0210466384887695,1,,0
st_beure__fleuret,"Beure - Fleuret",47.20685958862305,6.004794120788574,1,,1
st_grottes,"Grottes",47.22317123413086,6.040244102478027,1,,0
st_voirin,"Voirin",47.24225616455078,6.013794898986816,1,,1
st_saintvit__foulottiere,"Saint-Vit - Foulottière",47.189788818359375,5.820295810699463,1,,0
st_refuge,"Refuge",47.25570297241211,6.023619174957275,1,,0
st_chemaudin_et_vaux__les_boutons,"Chemaudin et Vaux - Les Boutons",47.219661712646484,5.895197868347168,1,,0
st_rene_char,"René Char",47.21839904785156,5.952353477478027,1,,0
st_pouilleyfrancais__eglise,"Pouilley-Français - Eglise",47.206520080566406,5.845627784729004,1,,1
st_pont_de_velotte,"Pont de Velotte",47.21694564819336,6.017777919769287,1,,0
st_chalezeule__centre_commercial,"Chalezeule - Centre Commercial",47.26237487792969,6.063927173614502,1,,1
st_nancray__les_pins,"Nancray - Les Pins",47.245059967041016,6.189381122589111,1,,1
st_lycee_saint_jean,"Lycée Saint Jean",47.25819778442383,6.020914077758789,1,,0
st_papin,"Papin",47.243247985839844,5.986136436462402,1,,0
st_fourier,"Fourier",47.25115203857422,6.030500888824463,1,,0
st_cite_viotte,"Cité Viotte",47.252037048339844,6.022529602050781,1,,0
st_port_douvot,"Port Douvot",47.207061767578125,5.993300914764404,1,,1
st_fontain__canton_viennet,"Fontain - Canton Viennet",47.19007110595703,6.0449299812316895,1,,0
st_la_chevillotte__la_chevillottela_grange_du_bosquet,"La Chevillotte - La chevillotte-La grange du bosquet",47.234375,6.14318323135376,1,,0
st_venise__jean_moulin,"Venise - Jean Moulin",47.345008850097656,6.104363918304443,1,,0
st_les_auxons__grand_bois,"Les Auxons - Grand Bois",47.30646514892578,5.969766616821289,1,,0
st_morre__echangeur,"Morre - Echangeur",47.22394561767578,6.06319522857666,1,,0
st_chemaudin_et_vaux__longeaige,"Chemaudin et Vaux - Longeaige",47.226280212402344,5.90048885345459,1,,0
st_fort_benoit,"Fort Benoît",47.26207733154297,6.050570487976074,1,,1
st_mazerolleslesalin__cimetiere,"Mazerolles-le-Salin - Cimetière",47.244468688964844,5.872858047485352,1,,0
st_pre_au_clair,"Pré au Clair",47.258758544921875,6.027672290802002,1,,0
st_saintvit__college_jaures,"Saint-Vit - Collège Jaurès",47.18389892578125,5.818220138549805,1,,0
st_canot,"Canot",47.23604965209961,6.015948295593262,1,,1
st_envelmey,"Envelmey",47.24681091308594,6.054662704467773,1,,0
st_fresnel,"Fresnel",47.23643493652344,5.977972984313965,1,,0
st_torpes__piroulette,"Torpes - Piroulette",47.181678771972656,5.87339973449707,1,,0
st_saintvit__benusse,"Saint-Vit - Benusse",47.18998336791992,5.8554511070251465,1,,0
st_bois_st_paul,"Bois St Paul",47.25139236450195,6.05812931060791,1,,0
st_chemaudin_et_vaux__zi,"Chemaudin et Vaux - Z.I.",47.20972442626953,5.902801036834717,1,,0
st_polygone,"Polygone",47.2298698425293,6.01063871383667,1,,0
st_tallenay__vauciels,"Tallenay - Vauciels",47.30641174316406,6.0216450691223145,1,,1
st_gare_de_la_mouillere,"Gare de la Mouillère",47.2408447265625,6.033220291137695,1,,0
st_pouilleylesvignes__salle_des_fetes,"Pouilley-les-Vignes - Salle des Fêtes",47.25794982910156,5.9346923828125,1,,0
st_busy__ecole,"Busy - Ecole",47.16743850708008,5.948607444763184,1,,0
st_foyer,"Foyer",47.24969482421875,6.055340766906738,1,,0
st_remparts,"Remparts",47.24403381347656,6.021666526794434,1,,0
st_maison_des_sports,"Maison des Sports",47.242515563964844,6.003827095031738,1,,0
st_morre__mairie,"Morre - Mairie",47.226234436035156,6.0653076171875,1,,1
st_la_veze__ecole,"La Vèze - Ecole",47.21367263793945,6.0665130615234375,1,,0
st_byanssurdoubs__gare,"Byans-sur-Doubs - Gare",47.11840057373047,5.852283000946045,1,,0
st_charmilles,"Charmilles",47.25563049316406,6.013616561889648,1,,0
st_gare_viotte,"Gare Viotte",47.24626541137695,6.022069454193115,1,,1
